id,icao_code,name,latitude,longitude
3,AGGH,Honiara International Airport,-9.428,160.054993
4,AGGM,Munda Airport,-8.32797,157.263
8,ANYN,Nauru International Airport,-0.547458,166.919006
336951,AQBC,Boulder Clay Runway,-74.739373,164.03539
336953,AT03,Concordia Skyway,-75.103278,123.35825
336959,AT28,Vostok Skiway,-78.466139,106.84825
35179,AYBA,Baimuru Airport,-7.496955,144.821756
53,AYBK,Buka Airport,-5.422299,154.672698
35180,AYBM,Balimo Airport,-8.050000191,142.9329987
54,AYCH,Chimbu Airport,-6.024290085,144.970993
55,AYDU,Daru Airport,-9.08676,143.207993
56,AYGA,Goroka Airport,-6.081689835,145.3919983
57,AYGN,Gurney Airport,-10.3114996,150.3339996
58,AYGR,Girua Airport,-8.80453968,148.3090057
59,AYHK,Hoskins Airport,-5.463846,150.407327
60,AYKM,Kerema Airport,-7.963610172,145.7709961
61,AYKV,Kavieng Airport,-2.579400063,150.8079987
62,AYMD,Madang Airport,-5.207079887,145.7890015
63,AYMH,Mount Hagen Kagamuga Airport,-5.828212,144.299412
64,AYMN,Mendi Airport,-6.14774,143.656998
65,AYMO,Momote Airport,-2.06189,147.423996
66,AYNZ,Nadzab Airport,-6.569803,146.725977
67,AYPY,Port Moresby Jacksons International Airport,-9.443380356,147.2200012
68,AYTK,Tokua Airport,-4.34046,152.380005
69,AYVN,Vanimo Airport,-2.6926,141.3028
70,AYWD,Wapenamanda Airport,-5.635293,143.892231
71,AYWK,Wewak International Airport,-3.583830118,143.6690063
31697,BGAA,Aasiaat Airport,68.721802,-52.784698
113,BGBW,Narsarsuaq Airport,61.1605,-45.425999
114,BGGH,Nuuk Airport,64.191066,-51.67914
31694,BGJN,Ilulissat Airport,69.243202,-51.057098
31786,BGKK,Kulusuk Airport,65.573601,-37.1236
115,BGSF,Kangerlussuaq Airport,67.010446,-50.715294
31700,BGSS,Sisimiut Airport,66.951302,-53.729301
116,BGTL,Pituffik Space Base,76.531197,-68.703201
117,BIAR,Akureyri Airport,65.656573,-18.072018
119,BIEG,Egilsstaðir Airport,65.28330231,-14.40139961
120,BIHN,Hornafjörður Airport,64.295601,-15.2272
121,BIHU,Húsavík Airport,65.952301,-17.426001
122,BIIS,Ísafjörður Airport,66.058098,-23.1353
123,BIKF,Keflavik International Airport,63.985001,-22.6056
125,BIRK,Reykjavík Domestic Airport,64.128732,-21.93759
126,BISI,Siglufjörður Airport,66.137847,-18.908157
128,BIVM,Vestmannaeyjar Airport,63.42430115,-20.27890015
4614,BKPR,Priština Adem Jashari International Airport,42.5728,21.035801
624,CAJ4,Anahim Lake Airport,52.451501,-125.303776
643,CAT4,Qualicum Beach Airport,49.337456,-124.393086
657,CAZ5,Cache Creek-Ashcroft Regional Airport,50.775258,-121.321314
664,CBBC,Bella Bella (Campbell Island) Airport,52.185001,-128.156994
1294,CNC3,Brampton-Caledon Airport,43.7603,-79.875
1654,CYAG,Fort Frances Municipal Airport,48.655749,-93.44349
1655,CYAH,La Grande-4 Airport,53.75469971,-73.6753006
1657,CYAM,Sault Ste Marie Airport,46.483216,-84.508467
1658,CYAQ,Kasabonika Airport,53.52470016,-88.64279938
1662,CYAV,Winnipeg / St. Andrews Airport,50.0564,-97.032501
1664,CYAX,Lac du Bonnet Airport,50.294399,-96.010002
1665,CYAY,St. Anthony Airport,51.391909,-56.08321
1666,CYAZ,Tofino / Long Beach Airport,49.079833,-125.775583
1669,CYBC,Baie-Comeau Airport,49.1325,-68.204399
1670,CYBD,Bella Coola Airport,52.387501,-126.596001
1672,CYBF,Bonnyville Airport,54.304199,-110.744003
1673,CYBG,CFB Bagotville / Saguenay-Bagotville Airport,48.331908,-70.992909
1674,CYBK,Baker Lake Airport,64.29889679,-96.07779694
1675,CYBL,Campbell River Airport,49.950802,-125.271004
1678,CYBR,Brandon Municipal Airport,49.91,-99.951897
1680,CYBU,Nipawin Airport,53.33250046,-104.0080032
1682,CYBW,Calgary / Springbank Airport,51.1031,-114.374001
1683,CYBX,Lourdes-de-Blanc-Sablon Airport,51.4436,-57.185299
1685,CYCB,Cambridge Bay Airport,69.10810089,-105.1380005
1686,CYCC,Cornwall Regional Airport,45.092637,-74.567724
1687,CYCD,Nanaimo Airport,49.05497,-123.869863
1688,CYCE,Centralia / James T. Field Memorial Aerodrome,43.285599,-81.508301
1689,CYCG,Castlegar/West Kootenay Regional Airport,49.296398,-117.632004
1690,CYCH,Miramichi Airport,47.007801,-65.449203
1691,CYCL,Charlo Airport,47.990799,-66.330299
1692,CYCN,Cochrane Airport,49.10559845,-81.01360321
1694,CYCP,Blue River Airport,52.11669922,-119.2829971
1695,CYCQ,Chetwynd Airport,55.68719864,-121.6269989
1703,CYDA,Dawson City Airport,64.04309845,-139.128006
1704,CYDB,Burwash Airport,61.371101,-139.041
1706,CYDF,Deer Lake Airport,49.2108,-57.391399
1709,CYDM,Ross River Airport,61.97060013,-132.4230042
1710,CYDN,Dauphin Barker Airport,51.1008,-100.052002
1711,CYDO,Dolbeau-Saint-Felicien Airport,48.7785,-72.375
1713,CYDQ,Dawson Creek Airport,55.741245,-120.183263
1716,CYEE,Huronia Airport,44.68330002,-79.92829895
1717,CYEG,Edmonton International Airport,53.3097,-113.580002
1719,CYEL,Elliot Lake Municipal Airport,46.35139847,-82.56140137
1720,CYEM,Manitoulin East Municipal Airport,45.842435,-81.857595
1721,CYEN,Estevan Airport,49.21030045,-102.9660034
1724,CYET,Edson Airport,53.57889938,-116.4649963
1726,CYEV,Inuvik Mike Zubko Airport,68.30419922,-133.4830017
1727,CYEY,Amos/Magny Airport,48.563903,-78.249702
1729,CYFB,Iqaluit Airport,63.756402,-68.555801
1730,CYFC,Fredericton Airport,45.8689003,-66.53720093
1732,CYFE,Forestville Airport,48.74610138,-69.09719849
1734,CYFJ,Mont-Tremblant International Airport,46.409401,-74.779999
1736,CYFR,Fort Resolution Airport,61.18080139,-113.6900024
1737,CYFS,Fort Simpson Airport,61.7602005,-121.2369995
1740,CYGD,Goderich Airport,43.76689911,-81.71060181
1741,CYGE,Golden Airport,51.299196,-116.982002
1743,CYGK,Kingston Norman Rogers Airport,44.2253,-76.596901
1744,CYGL,La Grande Rivière Airport,53.62530136,-77.70420074
1745,CYGM,Gimli Industrial Park Airport,50.62810135,-97.04329681
1747,CYGP,Michel-Pouliot Gaspé Airport,48.774915,-64.481893
1748,CYGQ,Geraldton Greenstone Regional Airport,49.77830124,-86.93939972
1749,CYGR,Îles-de-la-Madeleine Airport,47.425242,-61.778612
1751,CYGV,Havre-Saint-Pierre Airport,50.281898,-63.611401
1752,CYGW,Kuujjuarapik Airport,55.2818985,-77.76529694
1757,CYHD,Dryden Regional Airport,49.831699,-92.744202
1759,CYHF,Hearst René Fontaine Municipal Airport,49.71419907,-83.68609619
1763,CYHM,John C. Munro Hamilton International Airport,43.17359924,-79.93499756
1764,CYHN,Hornepayne Municipal Airport,49.19309998,-84.7589035
1767,CYHT,Haines Junction Airport,60.7892,-137.546005
1768,CYHU,Montréal / Saint-Hubert Metropolitan Airport,45.517502,-73.416901
1769,CYHY,Hay River / Merlyn Carter Airport,60.83969879,-115.7829971
1770,CYHZ,Halifax / Stanfield International Airport,44.88079834,-63.50859833
1771,CYIB,Atikokan Municipal Airport,48.773899,-91.638603
1772,CYID,Digby / Annapolis Regional Airport,44.54584504,-65.78542471
1773,CYIF,St Augustin Airport,51.2117,-58.658298
1776,CYIV,Island Lake Airport,53.85720062,-94.6536026
1778,CYJF,Fort Liard Airport,60.2358017,-123.4690018
1780,CYJN,St Jean Airport,45.29439926,-73.28109741
1783,CYJT,Dymond Airport,48.544201,-58.549999
1784,CYKA,Kamloops John Moose Fulton Field Regional Airport,50.703038,-120.448641
1787,CYKF,Region of Waterloo International Airport,43.4608,-80.378601
1789,CYKJ,Key Lake Airport,57.2560997,-105.6179962
1790,CYKL,Schefferville Airport,54.80530167,-66.80529785
1340,CYKM,Kincardine Municipal Airport,44.201401,-81.606697
1793,CYKX,Kirkland Lake Airport,48.21030045,-79.98139954
1794,CYKY,Kindersley Airport,51.51750183,-109.1809998
1799,CYLD,Chapleau Airport,47.81999969,-83.34670258
1801,CYLJ,Meadow Lake Airport,54.12530136,-108.5230026
1803,CYLL,Lloydminster Airport,53.3092,-110.072998
1805,CYLR,Leaf Rapids Airport,56.51330185,-99.98529816
1293,CYLS,Barrie-Lake Simcoe Regional Airport,44.485056,-79.554663
1806,CYLT,Alert Airport,82.517799,-62.280602
1808,CYLW,Kelowna International Airport,49.9561,-119.377998
1809,CYMA,Mayo Airport,63.61640167,-135.8679962
1810,CYME,Matane Airport,48.85689926,-67.45330048
1811,CYMG,Manitouwadge Airport,49.08390045,-85.86060333
1813,CYMJ,Moose Jaw Air Vice Marshal C. M. McEwen Airport,50.33029938,-105.5589981
1814,CYML,Charlevoix Airport,47.59749985,-70.22389984
1815,CYMM,Fort McMurray Airport,56.65330124,-111.2220001
1816,CYMO,Moosonee Airport,51.29109955,-80.60780334
1817,CYMT,Chapais Airport,49.77190018,-74.52809906
1820,CYMX,Montreal International (Mirabel) Airport,45.679501,-74.038696
1822,CYNA,Natashquan Airport,50.190114,-61.78898
1824,CYND,Ottawa / Gatineau Airport,45.521702,-75.563599
1827,CYNJ,Langley Airport,49.1008,-122.630997
1828,CYNL,Points North Landing Airport,58.27669907,-104.0820007
1829,CYNM,Matagami Airport,49.76169968,-77.80280304
1830,CYNN,Nejanilini Lake Airport,59.48749924,-97.78029633
1832,CYOA,Ekati Airport,64.69889832,-110.6149979
1834,CYOD,CFB Cold Lake,54.40499878,-110.2789993
1836,CYOJ,High Level Airport,58.62139893,-117.1650009
1837,CYOO,Oshawa Executive Airport,43.922798,-78.894997
1838,CYOP,Rainbow Lake Airport,58.491402,-119.407997
1839,CYOS,Owen Sound / Billy Bishop Regional Airport,44.59030151,-80.83750153
1840,CYOW,Ottawa Macdonald-Cartier International Airport,45.322498,-75.669197
1842,CYPA,Prince Albert Glass Field,53.21419907,-105.6729965
1844,CYPD,Port Hawkesbury Airport,45.65670013,-61.36809921
1845,CYPE,Peace River Airport,56.226898,-117.446999
1846,CYPG,Portage-la-Prairie / Southport Airport,49.903099,-98.273817
1848,CYPK,Pitt Meadows Airport,49.216099,-122.709999
1849,CYPL,Pickle Lake Airport,51.44639969,-90.21420288
1851,CYPN,Port-Menier Airport,49.836399,-64.288597
1854,CYPQ,Peterborough Municipal Airport,44.23,-78.363297
1855,CYPR,Prince Rupert Airport,54.28609848,-130.4450073
1859,CYPW,Powell River Airport,49.83420181,-124.5
1860,CYPX,Puvirnituq Airport,60.050598,-77.286903
1861,CYPY,Fort Chipewyan Airport,58.76720047,-111.1169968
1862,CYPZ,Burns Lake Airport,54.3764,-125.950996
1863,CYQA,Muskoka Airport,44.975376,-79.306546
1864,CYQB,Quebec Jean Lesage International Airport,46.7911,-71.393303
1865,CYQD,The Pas Airport,53.97140121,-101.0910034
1866,CYQF,Red Deer Regional Airport,52.182201,-113.893997
1867,CYQG,Windsor Airport,42.27560043,-82.95559692
1868,CYQH,Watson Lake Airport,60.116839,-128.821993
1869,CYQI,Yarmouth Airport,43.82690048,-66.08809662
1870,CYQK,Kenora Airport,49.78829956,-94.36309814
1871,CYQL,Lethbridge County Airport,49.63029861,-112.8000031
1872,CYQM,Greater Moncton Roméo LeBlanc International Airport,46.112202,-64.678596
1873,CYQN,Nakina Airport,50.18280029,-86.6964035
1874,CYQQ,Comox Valley Airport / CFB Comox,49.7108,-124.887001
1875,CYQR,Regina International Airport,50.43190002,-104.6660004
1876,CYQS,St Thomas Municipal Airport,42.77000046,-81.1108017
1877,CYQT,Thunder Bay Airport,48.37189865,-89.32389832
1878,CYQU,Grande Prairie Airport,55.17969894,-118.8850021
1879,CYQV,Yorkton Municipal Airport,51.26470184,-102.461998
1880,CYQW,North Battleford Airport,52.769409,-108.243742
1881,CYQX,Gander International Airport / CFB Gander,48.936258,-54.567719
1882,CYQY,Sydney / J.A. Douglas McCurdy Airport,46.1614,-60.047798
1883,CYQZ,Quesnel Airport,53.02610016,-122.5100021
1885,CYRB,Resolute Bay Airport,74.71690369,-94.9693985
1887,CYRI,Rivière-du-Loup Airport,47.76440048,-69.58470154
1888,CYRJ,Roberval Airport,48.519665,-72.265735
1889,CYRL,Red Lake Airport,51.06689835,-93.79309845
1891,CYRO,Ottawa / Rockcliffe Airport,45.46030045,-75.64610291
1892,CYRP,Ottawa / Carp Airport,45.31919861,-76.02220154
1893,CYRQ,Trois-Rivières Airport,46.35279846,-72.67939758
1895,CYRT,Rankin Inlet Airport,62.81140137,-92.11579895
1896,CYRV,Revelstoke Airport,50.962245,-118.184258
1897,CYSB,Sudbury Airport,46.625,-80.79889679
1898,CYSC,Sherbrooke Airport,45.438599,-71.691399
1901,CYSF,Stony Rapids Airport,59.25030136,-105.8410034
1902,CYSG,Saint-Georges Airport,46.096401,-70.714699
1903,CYSH,Smiths Falls-Montague (Russ Beach) Airport,44.945801,-75.940598
1904,CYSJ,Saint John Airport,45.31610107,-65.89029694
1906,CYSL,Saint-Léonard Airport,47.157097,-67.836242
1907,CYSM,Fort Smith Airport,60.020302,-111.961998
1908,CYSN,Niagara District Airport,43.191598,-79.171686
1909,CYSP,Marathon Airport,48.75529861,-86.3443985
1913,CYSU,Summerside Airport,46.440601,-63.833599
1917,CYTA,Pembroke Airport,45.86439896,-77.25170135
1919,CYTF,Alma Airport,48.5089,-71.641899
1920,CYTH,Thompson Airport,55.80110168,-97.86419678
1924,CYTR,CFB Trenton,44.1189003,-77.52809906
1925,CYTS,Timmins/Victor M. Power,48.56969833,-81.37670136
1926,CYTZ,Billy Bishop Toronto City Centre Airport,43.627499,-79.396202
1928,CYUL,Montreal / Pierre Elliott Trudeau International Airport,45.467837,-73.742294
1930,CYUX,Hall Beach Airport,68.7761,-81.2425
1931,CYUY,Rouyn Noranda Airport,48.20610046,-78.83560181
1932,CYVB,Bonaventure Airport,48.071098,-65.460297
1933,CYVC,La Ronge Airport,55.15140152,-105.262001
1934,CYVD,Virden / RJ (Bob) Andrew Field Regional Aerodrome,49.8783,-100.917999
1936,CYVK,Vernon Regional Airport,50.246163,-119.330963
1938,CYVO,Val-d'Or Airport,48.05329895,-77.78279877
1939,CYVP,Kuujjuaq Airport,58.09609985,-68.42690277
1940,CYVQ,Norman Wells Airport,65.28160095,-126.7979965
1941,CYVR,Vancouver International Airport,49.19390106,-123.1839981
1943,CYVV,Wiarton Airport,44.7458,-81.107201
1946,CYWG,Winnipeg / James Armstrong Richardson International Airport,49.90999985,-97.23989868
1949,CYWK,Wabush Airport,52.9219017,-66.86440277
1950,CYWL,Williams Lake Airport,52.18310165,-122.0540009
1954,CYWY,Wrigley Airport,63.20940018,-123.4369965
1955,CYXC,Cranbrook/Canadian Rockies International Airport,49.6108017,-115.7819977
1957,CYXE,Saskatoon John G. Diefenbaker International Airport,52.17079926,-106.6999969
1958,CYXH,Medicine Hat Regional Airport,50.018902,-110.721001
1959,CYXJ,Fort St John / North Peace Regional Airport,56.238098,-120.739998
1960,CYXK,Rimouski Airport,48.477644,-68.496323
1961,CYXL,Sioux Lookout Airport,50.11389923,-91.90529633
1964,CYXQ,Beaver Creek Airport,62.41030121,-140.8670044
1965,CYXR,Earlton (Timiskaming Regional) Airport,47.69740065,-79.84734535
1966,CYXS,Prince George Airport,53.884311,-122.666554
1967,CYXT,Northwest Regional Airport Terrace-Kitimat,54.468498,-128.576009
1968,CYXU,London Airport,43.035599,-81.1539
1969,CYXX,Abbotsford International Airport,49.025299,-122.361
1970,CYXY,Whitehorse / Erik Nielsen International Airport,60.709599,-135.067001
1971,CYXZ,Wawa Airport,47.96670151,-84.78669739
1972,CYYB,North Bay Jack Garland Airport,46.363602,-79.422798
1973,CYYC,Calgary International Airport,51.118822,-114.009933
1974,CYYD,Smithers Airport,54.8246994,-127.1829987
1975,CYYE,Fort Nelson Airport,58.83639908,-122.5970001
1976,CYYF,Penticton Airport,49.46310043,-119.6019974
1977,CYYG,Charlottetown Airport,46.29000092,-63.12110138
1979,CYYJ,Victoria International Airport,48.647201,-123.427792
1980,CYYL,Lynn Lake Airport,56.86389923,-101.0759964
1982,CYYN,Swift Current Airport,50.29190063,-107.6910019
1984,CYYQ,Churchill Airport,58.73920059,-94.06500244
1985,CYYR,Goose Bay Airport,53.31919861,-60.42580032
1986,CYYT,St. John's International Airport,47.618599,-52.7519
1987,CYYU,Kapuskasing Airport,49.411587,-82.469645
1988,CYYW,Armstrong Airport,50.29029846,-88.90969849
1989,CYYY,Mont Joli Airport,48.60860062,-68.20809937
1990,CYYZ,Toronto Lester B. Pearson International Airport,43.6772,-79.6306
1992,CYZE,Gore Bay Manitoulin Airport,45.8853,-82.567802
1993,CYZF,Yellowknife International Airport,62.462799,-114.440002
1995,CYZH,Slave Lake Airport,55.292945,-114.777276
1996,CYZP,Sandspit Airport,53.25429916,-131.8139954
1997,CYZR,Chris Hadfield Airport,42.999401,-82.308899
1998,CYZS,Coral Harbour Airport,64.19329834,-83.35939789
1999,CYZT,Port Hardy Airport,50.68059921,-127.3669968
2000,CYZU,Whitecourt Airport,54.143902,-115.787003
2001,CYZV,Sept-Îles Airport,50.22330093,-66.26560211
2002,CYZW,Teslin Airport,60.17279816,-132.7429962
2003,CYZX,CFB Greenwood,44.9844017,-64.91690063
2004,CYZY,Mackenzie Airport,55.297786,-123.133907
2006,CZAM,Shuswap Regional Airport,50.682802,-119.228996
2008,CZBB,Boundary Bay Airport,49.0742,-123.012001
2010,CZBF,Bathurst Airport,47.6297,-65.738899
2011,CZBM,Bromont (Roland Désourdy) Airport,45.290798,-72.741402
2012,CZEE,Kelsey Airport,56.03749847,-96.50969696
2014,CZFA,Faro Airport,62.20750046,-133.3760071
2019,CZGF,Grand Forks Airport,49.015598,-118.431
2023,CZJG,Jenpeg Airport,54.51890182,-98.0460968
2024,CZJN,Swan River Airport,52.120602,-101.236
2026,CZLQ,Thicket Portage Airport,55.31890106,-97.70780182
2029,CZMN,Pikwitonei Airport,55.58890152,-97.16419983
2030,CZMT,Masset Airport,54.0275,-132.125
2034,CZPC,Pincher Creek Airport,49.520429,-113.997002
2037,CZSJ,Sandy Lake Airport,53.06420135,-93.3443985
2039,CZST,Stewart Airport,55.93541045,-129.9824345
2042,CZUC,Ignace Municipal Airport,49.428204,-91.720418
2047,DAAB,Blida Airport,36.503601,2.81417
2048,DAAD,Bou Saada Airport,35.3325,4.20639
2049,DAAE,Soummam–Abane Ramdane Airport,36.711952,5.069804
2050,DAAG,Houari Boumediene Airport,36.693886,3.214531
2051,DAAJ,Djanet Inedbirene Airport,24.292801,9.45244
2052,DAAK,Boufarik Air Base,36.545799,2.87611
2054,DAAP,Illizi Takhamalt Airport,26.723499,8.62265
32193,DAAS,Ain Arnat Airport,36.17810059,5.32449007
2056,DAAT,Aguenar – Hadj Bey Akhamok Airport,22.811501,5.45108
2057,DAAV,Jijel Ferhat Abbas Airport,36.795101,5.87361
2058,DAAY,Mecheria Airport,33.53590012,-0.242353007
2059,DAAZ,Relizane Airport,35.752955,0.625877
2060,DABB,Annaba Rabah Bitat Airport,36.826781,7.81334
2061,DABC,Mohamed Boudiaf International Airport,36.27600098,6.620389938
2062,DABS,Cheikh Larbi Tébessi Airport,35.43159866,8.12071991
2063,DABT,Batna Mostefa Ben Boulaid Airport,35.752102,6.30859
2064,DAFH,Hassi R'Mel Airport,32.930401,3.31154
2065,DAOB,Abdelhafid Boussouf Bou Chekif Airport,35.341099,1.46315
2067,DAOF,Tindouf Airport,27.7003994,-8.167099953
2068,DAOI,Chlef Aboubakr Belkaid International Airport,36.217166,1.342237
2069,DAOL,Oran Tafraoui Airport,35.5424,-0.532278
2070,DAON,Zenata – Messali El Hadj Airport,35.013426,-1.457191
2071,DAOO,Oran Es-Sénia (Ahmed Ben Bella) International Airport,35.623901,-0.621183
2072,DAOR,Béchar Boudghene Ben Ali Lotfi Airport,31.64570045,-2.269860029
2074,DAOV,Ghriss Airport,35.207699,0.147142
2075,DAUA,Touat Cheikh Sidi Mohamed Belkebir Airport,27.837601,-0.186414
2076,DAUB,Biskra - Mohamed Khider Airport,34.793301,5.73823
2077,DAUE,El Golea Airport,30.580732,2.861595
2078,DAUG,Noumérat - Moufdi Zakaria Airport,32.384102,3.79411
2079,DAUH,Hassi Messaoud-Oued Irara Krim Belkacem Airport,31.673,6.14044
2080,DAUI,In Salah Airport,27.250999,2.51202
2081,DAUK,Touggourt Sidi Madhi Airport,33.067799,6.08867
2082,DAUL,Laghouat - Molay Ahmed Medeghri Airport,33.7644,2.92834
2083,DAUO,Guemar Airport - مطار قمار بالوادي,33.511398,6.77679
2084,DAUT,Timimoun Airport,29.237101,0.276033
2085,DAUU,Ain Beida Airport,31.9172,5.41278
2086,DAUZ,Zarzaitine - In Aménas Airport,28.0515,9.64291
2087,DBBB,Cadjehoun Airport,6.357230186,2.384350061
2088,DFFD,Ouagadougou Airport,12.3532,-1.51242
2089,DFOO,Bobo Dioulasso Airport,11.16009998,-4.33096981
2090,DGAA,Kotoka International Airport,5.6051898,-0.166786
354173,DGAH,Ho Airport,6.579691,0.532547
2091,DGLE,Tamale Airport,9.557189941,-0.863214016
2093,DGSI,Kumasi Airport,6.714560032,-1.590819955
2094,DGSN,Sunyani Airport,7.36183,-2.32876
2095,DGTK,Takoradi Airport,4.89605999,-1.774760008
2096,DIAP,Félix-Houphouët-Boigny International Airport,5.26139,-3.92629
2097,DIBK,Bouaké Airport,7.7388,-5.07367
2098,DIDL,Daloa Airport,6.79281,-6.47319
2099,DIKO,Korhogo Airport,9.38718,-5.55666
2100,DIMN,Man Airport,7.27207,-7.58736
2101,DISP,San Pedro Airport,4.74672,-6.66082
2102,DIYO,Yamoussoukro Airport,6.903170109,-5.365580082
2104,DNAA,Nnamdi Azikiwe International Airport,9.00679,7.26317
309668,DNAI,Akwa Ibom International Airport,4.8725,8.093
2105,DNAK,Akure Airport,7.246739864,5.301010132
300781,DNAS,Asaba International Airport,6.204167,6.665278
323056,DNBC,Sir Abubakar Tafawa Balewa International Airport,10.482833,9.744
2106,DNBE,Benin Airport,6.316979885,5.599500179
340295,DNBY,Bayelsa International Airport,4.95759,6.203327
2107,DNCA,Margaret Ekpo International Airport,4.976019859,8.347200394
2108,DNEN,Akanu Ibiam International Airport,6.474269867,7.56196022
44578,DNGO,Gombe Lawanti International Airport,10.298889,10.9
2109,DNGU,Gusau Airport,12.17286,6.696136
2110,DNIB,Ibadan Airport,7.362460136,3.978329897
2111,DNIL,Ilorin International Airport,8.440210342,4.493919849
2112,DNIM,Sam Mbakwe International Airport,5.427060127,7.206029892
2113,DNJO,Yakubu Gowon Airport,9.639829636,8.869050026
2114,DNKA,Kaduna Airport,10.6960001,7.320109844
2115,DNKN,Mallam Aminu International Airport,12.0476,8.52462
2116,DNMA,Maiduguri International Airport,11.85529995,13.08090019
2117,DNMK,Makurdi Airport,7.70388,8.61394
2118,DNMM,Murtala Muhammed International Airport,6.57737,3.32116
2119,DNMN,Minna Airport,9.652170181,6.462259769
2120,DNPO,Port Harcourt International Airport,5.015490055,6.949590206
2121,DNSO,Sadiq Abubakar III International Airport,12.91629982,5.207190037
32192,DNSU,Warri Airport,5.59821,5.8187
2122,DNYO,Yola Airport,9.25755024,12.43039989
2123,DNZA,Zaria Airport,11.1302,7.68581
2124,DRRM,Maradi Airport,13.5025,7.12675
2125,DRRN,Diori Hamani International Airport,13.4815,2.18361
2126,DRRT,Tahoua Airport,14.8757,5.26536
2127,DRZA,Mano Dayak International Airport,16.9659996,8.000109673
2130,DRZR,Zinder Airport,13.77900028,8.98375988
2131,DTKA,Tabarka-Aïn Draham International Airport,36.98,8.87694
2132,DTMB,Monastir Habib Bourguiba International Airport,35.7580986,10.75469971
44483,DTNH,Enfidha - Hammamet International Airport,36.075833,10.438611
2133,DTTA,Tunis Carthage International Airport,36.851002,10.2272
2134,DTTB,Bizerte Sidi Ahmed Air Base,37.242356,9.787016
2135,DTTD,Remada Air Base,32.306198,10.3821
2136,DTTF,Gafsa Ksar International Airport,34.42200089,8.822500229
2137,DTTG,Gabès Matmata International Airport,33.733691,9.91941
2139,DTTJ,Djerba Zarzis International Airport,33.875,10.7755
2140,DTTR,El Borma Airport,31.7043,9.25462
2141,DTTX,Sfax Thyna International Airport,34.7179985,10.69099998
2142,DTTZ,Tozeur Nefta International Airport,33.93970108,8.110560417
2143,DXNG,Niamtougou International Airport,9.76733017,1.091249943
2144,DXXX,Lomé–Tokoin International Airport,6.16561,1.25451
2152,EBAW,Antwerp International Airport (Deurne),51.190667,4.463153
2153,EBBE,Beauvechain Air Base,50.758598,4.76833
2154,EBBL,Kleine Brogel Air Base,51.168301,5.47
2155,EBBR,Brussels Airport,50.901402,4.48444
2157,EBCI,Brussels South Charleroi Airport,50.460982,4.457158
2158,EBCV,Chièvres Air Base,50.57580185,3.83100009
2159,EBFN,Koksijde Air Base,51.090302,2.65278
2160,EBFS,Florennes Air Base,50.24330139,4.645830154
2161,EBKT,Flanders International Airport Kortrijk-Wevelgem,50.818878,3.209551
2162,EBLG,Liège Airport,50.638574,5.443897
2163,EBOS,Oostende-Brugge International Airport,51.1998,2.874673
2184,EDAC,Leipzig–Altenburg Airport,50.981945,12.506389
2187,EDAH,Heringsdorf Airport,53.8787,14.1523
2743,EDBN,Neubrandenburg Trollenhagen Airport,53.6022,13.306
2200,EDBR,Rothenburg/Görlitz Airfield,51.363335,14.95
301881,EDDB,Berlin Brandenburg Airport,52.362247,13.500672
2210,EDDC,Dresden Airport,51.134123,13.767831
2211,EDDE,Erfurt-Weimar Airport,50.979801,10.9581
2212,EDDF,Frankfurt Airport,50.030241,8.561096
2213,EDDG,Münster Osnabrück Airport,52.134602,7.68483
2214,EDDH,Hamburg Helmut Schmidt Airport,53.630402,9.98823
2216,EDDK,Cologne Bonn Airport,50.865898,7.14274
2217,EDDL,Düsseldorf Airport,51.289501,6.76678
2218,EDDM,Munich Airport,48.353802,11.7861
2219,EDDN,Nuremberg Airport,49.498699,11.078056
2220,EDDP,Leipzig/Halle Airport,51.420657,12.232705
2221,EDDR,Saarbrücken Airport,49.21459961,7.109509945
2222,EDDS,Stuttgart Airport,48.689899,9.22196
2224,EDDV,Hannover Airport,52.461102,9.68508
2225,EDDW,Bremen Airport,53.046786,8.78932
2226,EDFE,Frankfurt-Egelsbach Airport,49.96,8.643043
2227,EDFH,Frankfurt-Hahn Airport,49.9487,7.26389
2228,EDFM,Mannheim-City Airport,49.473057,8.514167
2231,EDFZ,Mainz-Finthen Airfield,49.967499,8.147222
2232,EDGE,Eisenach-Kindel Airport,50.991604,10.47973
2233,EDGS,Siegerland Airport,50.707699,8.08297
2234,EDHI,Hamburg-Finkenwerder Airport,53.53527832,9.83555603
2235,EDHK,Kiel-Holtenau Airport,54.37957,10.145266
2236,EDHL,Lübeck Blankensee Airport,53.805401,10.7192
2237,EDJA,Memmingen Allgau Airport,47.98880005,10.23950005
2243,EDLN,Mönchengladbach Airport,51.230278,6.504444
2244,EDLP,Paderborn Lippstadt Airport,51.614101,8.61632
2246,EDLV,Weeze Airport,51.60240173,6.142169952
2247,EDLW,Dortmund Airport,51.518299,7.61224
2248,EDMA,Augsburg Airport,48.425278,10.931667
2252,EDMO,Oberpfaffenhofen Airport,48.081402,11.2831
2256,EDNY,Friedrichshafen Airport,47.671299,9.51149
317932,EDQA,Bamberg-Breitenau Airfield,49.920403,10.914233
2261,EDQD,Bayreuth Airport,49.985001,11.64
2263,EDQM,Hof-Plauen Airport,50.288544,11.852876
2270,EDSB,Karlsruhe Baden-Baden Airport,48.7794,8.0805
2273,EDTD,Donaueschingen-Villingen Airfield,47.973331,8.522222
2276,EDTL,Lahr Airport,48.369301,7.82772
2277,EDTM,Mengen-Hohentengen Airfield,48.05389,9.372778
2278,EDTY,Adolf Würth Airport,49.118332,9.783889
29094,EDUZ,Zerbst Airfield,52.000832,12.148611
2284,EDVE,Braunschweig-Wolfsburg Airport,52.319199,10.5561
2285,EDVK,Kassel Airport,51.420699,9.392152
2296,EDXW,Westerland Sylt Airport,54.9132,8.34047
2297,EEEI,Ämari Air Base,59.259599,24.204799
2298,EEKA,Kärdla Airport,58.99079895,22.83069992
2299,EEKE,Kuressaare Airport,58.22990036,22.5095005
2300,EEPU,Pärnu Airport,58.41899872,24.4727993
2301,EETN,Lennart Meri Tallinn Airport,59.413246,24.83264
2302,EETU,Tartu Airport,58.307438,26.686473
2303,EFET,Enontekio Airport,68.36260223,23.42429924
2305,EFHA,Halli Airport,61.856039,24.786686
2307,EFHK,Helsinki Vantaa Airport,60.318363,24.963341
2313,EFIT,Kitee Airport,62.1661,30.073601
2314,EFIV,Ivalo Airport,68.6072998,27.40530014
2315,EFJO,Joensuu Airport,62.658815,29.619398
2316,EFJY,Jyväskylä Airport,62.399502,25.678301
2317,EFKA,Kauhava Airfield,63.127102,23.051399
2318,EFKE,Kemi-Tornio Airport,65.77870178,24.58209991
2319,EFKI,Kajaani Airport,64.2855,27.6924
2320,EFKJ,Kauhajoki Airfield,62.463212,22.390817
2321,EFKK,Kokkola-Pietarsaari Airport,63.721199,23.143101
2324,EFKS,Kuusamo Airport,65.987602,29.239401
2325,EFKT,Kittilä Airport,67.7009964,24.84679985
2326,EFKU,Kuopio Airport,63.007099,27.7978
2329,EFLP,Lappeenranta Airport,61.044601,28.144743
2330,EFMA,Mariehamn Airport,60.1222,19.898199
2332,EFMI,Mikkeli Airport,61.6866,27.201799
2334,EFOU,Oulu Airport,64.930099,25.354601
2336,EFPO,Pori Airport,61.4617,21.799999
334942,EFPR,Helsinki East-Redstone Aerodrome,60.479167,26.593889
2341,EFRO,Rovaniemi Airport,66.56479645,25.83040047
2343,EFSA,Savonlinna Airport,61.9431,28.945101
2345,EFSI,Seinäjoki Airport,62.692101,22.8323
2346,EFSO,Sodankyla Airport,67.39499664,26.61910057
2347,EFTP,Tampere-Pirkkala Airport,61.414101,23.604401
2349,EFTU,Turku Airport,60.514099,22.2628
2350,EFUT,Utti Air Base,60.8964,26.9384
2351,EFVA,Vaasa Airport,63.050701,21.762199
2352,EFVR,Varkaus Airport,62.171101,27.868601
2353,EFYL,Ylivieska Airfield,64.054722,24.725278
2385,EGAA,Belfast International Airport,54.65750122,-6.215829849
2386,EGAB,Enniskillen/St Angelo Airport,54.398274,-7.651179
2387,EGAC,George Best Belfast City Airport,54.618099,-5.8725
2388,EGAE,City of Derry Airport,55.0428009,-7.161109924
2389,EGBB,Birmingham Airport,52.453899,-1.74803
2390,EGBE,Coventry Airport,52.369701,-1.47972
2392,EGBJ,Gloucestershire Airport,51.89419937,-2.167220116
2393,EGBN,Nottingham City Airport,52.919998,-1.07917
2398,EGCC,Manchester Airport,53.349375,-2.279521
2403,EGDC,Royal Marines Base Chivenor,51.0872,-4.15034
2406,EGDM,MoD Boscombe Down,51.152199,-1.74741
2408,EGDR,RNAS Culdrose,50.08610153,-5.255710125
2409,EGDX,MOD St Athan,51.405229,-3.433254
2410,EGDY,RNAS Yeovilton,51.009399,-2.63882
2411,EGEC,Campbeltown Airport,55.43719864,-5.686389923
29126,EGED,Eday Airport,59.19060135,-2.772219896
2414,EGFE,Haverfordwest Airport,51.83309937,-4.961110115
2415,EGFF,Cardiff International Airport,51.396702,-3.34333
2416,EGFH,Swansea Airport,51.601366,-4.071006
2417,EGGD,Bristol Airport,51.382702,-2.71909
2418,EGGP,Liverpool John Lennon Airport,53.333599,-2.84972
2419,EGGW,London Luton Airport,51.874699,-0.368333
2421,EGHH,Bournemouth Airport,50.780483,-1.839576
2422,EGHI,Southampton Airport,50.950298,-1.3568
2423,EGHL,Lasham Airfield,51.18744,-1.031663
2404,EGHQ,Cornwall Airport Newquay,50.440601,-4.99541
2424,EGJA,Alderney Airport,49.706104,-2.21472
2425,EGJB,Guernsey Airport,49.435001,-2.60197
2426,EGJJ,Jersey Airport,49.207901,-2.19551
2427,EGKA,Brighton City Airport,50.835602,-0.297222
2428,EGKB,London Biggin Hill Airport,51.3307991,0.032499999
2429,EGKK,London Gatwick Airport,51.148771,-0.192089
2430,EGLC,London City Airport,51.505299,0.055278
2431,EGLF,Farnborough Airport,51.275799,-0.776333
2433,EGLK,Blackbushe Airport,51.323898,-0.8475
2434,EGLL,London Heathrow Airport,51.4706,-0.461941
2435,EGMC,London Southend Airport,51.570562,0.693627
2436,EGMD,Lydd London Ashford Airport,50.956246,0.939074
2439,EGNC,Carlisle Lake District Airport,54.9375,-2.80917
2441,EGNH,Blackpool Airport,53.771702,-3.02861
2442,EGNJ,Humberside Airport,53.576152,-0.34954
2443,EGNL,Barrow Walney Island Airport,54.1286111,-3.2675
2444,EGNM,Leeds Bradford Airport,53.865898,-1.66057
2445,EGNO,Warton Aerodrome,53.745098,-2.88306
2446,EGNR,Hawarden Airport,53.178101,-2.97778
2447,EGNS,Isle of Man Airport,54.083302,-4.62389
2448,EGNT,Newcastle International Airport,55.037958,-1.689577
2449,EGNV,Teesside International Airport,54.509201,-1.42941
2450,EGNX,East Midlands Airport,52.8311,-1.32806
30991,EGOM,RAF Spadeadam,55.04999924,-2.549999952
2453,EGOS,RAF Shawbury,52.798199,-2.66804
2454,EGOV,Anglesey Airport,53.2481,-4.53534
2456,EGPA,Kirkwall Airport,58.95780182,-2.904999971
2457,EGPB,Sumburgh Airport,59.878899,-1.29556
2458,EGPC,Wick John O'Groats Airport,58.4589,-3.09306
2459,EGPD,Aberdeen International Airport,57.2019,-2.19778
2460,EGPE,Inverness Airport,57.54249954,-4.047500134
2461,EGPF,Glasgow Airport,55.871899,-4.43306
2462,EGPH,Edinburgh Airport,55.950145,-3.372288
2463,EGPI,Islay Airport,55.682708,-6.257525
2464,EGPK,Glasgow Prestwick Airport,55.502003,-4.587019
2465,EGPL,Benbecula Airport,57.48109818,-7.362780094
2467,EGPN,Dundee Airport,56.45249939,-3.02583003
2468,EGPO,Stornoway Airport,58.215599,-6.33111
29173,EGPR,Barra Airport,57.0228,-7.44306
2469,EGPU,Tiree Airport,56.49919891,-6.869170189
2471,EGQL,Leuchars Station Airfield,56.37398,-2.868862
2472,EGQS,RAF Lossiemouth,57.7052002,-3.339169979
2473,EGSC,Cambridge City Airport,52.205002,0.175
2475,EGSH,Norwich Airport,52.6758,1.28278
2476,EGSS,London Stansted Airport,51.884998,0.235
2480,EGTC,Cranfield Airport,52.072201,-0.616667
2481,EGTE,Exeter International Airport,50.734261,-3.413984
2483,EGTK,London Oxford Airport,51.836899,-1.32
2486,EGUB,RAF Benson,51.614366,-1.095991
2487,EGUL,RAF Lakenheath,52.40954,0.561161
2488,EGUN,RAF Mildenhall,52.3619,0.486406
2490,EGUW,Wattisham Airfield,52.127451,0.956189
2492,EGVA,RAF Fairford,51.683568,-1.789172
2493,EGVN,RAF Brize Norton,51.75,-1.58362
2494,EGVO,RAF Odiham,51.2341,-0.942825
2495,EGWC,RAF Cosford,52.639999,-2.30558
2496,EGWU,RAF Northolt,51.553001,-0.418167
2497,EGXC,RAF Coningsby,53.092999,-0.166014
2499,EGXE,RAF Leeming,54.297191,-1.538944
2500,EGXG,Leeds East Airport,53.834747,-1.194678
2501,EGXH,RAF Honington,52.342602,0.772939
2504,EGXT,RAF Wittering,52.612598,-0.476453
2506,EGXW,RAF Waddington,53.166199,-0.523811
2508,EGXZ,RAF Topcliffe,54.204116,-1.380265
2509,EGYD,RAF Cranwell,53.0303,-0.483242
2510,EGYE,RAF Barkston Heath,52.960616,-0.559428
2511,EGYM,RAF Marham,52.648395,0.550692
2512,EGYP,Mount Pleasant Airport,-51.82279968,-58.44720078
2513,EHAM,Amsterdam Airport Schiphol,52.308601,4.76389
2514,EHBD,Kempen Airport Budel,51.255299,5.60139
2515,EHBK,Maastricht Aachen Airport,50.911701,5.77014
2516,EHDL,Deelen Air Base,52.0606,5.87306
2518,EHEH,Eindhoven Airport,51.45009995,5.374529839
2519,EHGG,Groningen Airport Eelde,53.119701,6.57944
2520,EHGR,Gilze Rijen Air Base,51.567402,4.93183
2521,EHKD,De Kooy Airfield / Den Helder Naval Air Station,52.923401,4.78062
2522,EHLE,Lelystad Airport,52.453188,5.514622
2523,EHLW,Leeuwarden Air Base,53.22859955,5.760560036
2524,EHRD,Rotterdam The Hague Airport,51.956902,4.43722
2526,EHTW,Twente Airport,52.275833,6.889167
2528,EHVK,Volkel Air Base,51.657222,5.707778
2529,EHWO,Woensdrecht Air Base,51.4491,4.34203
2530,EICK,Cork Airport,51.841301,-8.49111
2531,EICM,Galway Airport,53.300201,-8.94159
2532,EIDL,Donegal Airport,55.0442009,-8.340999603
2533,EIDW,Dublin Airport,53.428713,-6.262121
2534,EIKN,Ireland West Knock Airport,53.910301,-8.81849
2535,EIKY,Kerry Airport,52.180901,-9.52378
2536,EIME,Casement Air Base,53.30170059,-6.451330185
2537,EINN,Shannon Airport,52.702,-8.92482
2538,EISG,Sligo Airport,54.28020096,-8.599209785
2539,EIWF,Waterford Airport,52.187199,-7.08696
27310,EIWT,Weston Airport,53.351622,-6.490357
2540,EKAH,Aarhus Airport,56.303331,10.618286
2541,EKBI,Billund Airport,55.740335,9.157019
2542,EKCH,Copenhagen Kastrup Airport,55.61790085,12.65600014
2543,EKEB,Esbjerg Airport,55.525902,8.5534
2546,EKKA,Midtjyllands Airport / Air Base Karup,56.297139,9.104311
2548,EKMB,Lolland Falster Maribo Airport,54.699447,11.438163
2549,EKOD,Odense Hans Christian Andersen Airport,55.475307,10.327206
2551,EKRK,Copenhagen Roskilde Airport,55.585602,12.1314
2552,EKRN,Bornholm Airport,55.063301,14.7596
2553,EKSB,Sønderborg Airport,54.96440125,9.791729927
2554,EKSN,Sindal Airport,57.503502,10.2294
2555,EKSP,Skrydstrup Air Base,55.221048,9.26702
2556,EKSV,Skive Airport,56.550201,9.17298
2557,EKTS,Thisted Airport,57.068802,8.70522
2558,EKVD,Kolding Vamdrup Airfield,55.436298,9.33092
2559,EKVG,Vágar Airport,62.063256,-7.275782
2561,EKVJ,Stauning Vestjylland  Airport,55.990101,8.35391
2562,EKYT,Aalborg Airport,57.094763,9.84993
2563,ELLX,Luxembourg-Findel International Airport,49.6233333,6.2044444
2564,ENAL,"Ålesund Airport, Vigra",62.5625,6.1197
2565,ENAN,"Andøya Airport, Andenes",69.292503,16.144199
2566,ENAT,Alta Airport,69.976097,23.3717
2568,ENBN,"Brønnøysund Airport, Brønnøy",65.461098,12.2175
2569,ENBO,Bodø Airport,67.269203,14.3653
2570,ENBR,"Bergen Airport, Flesland",60.2934,5.21814
2571,ENBS,Båtsfjord Airport,70.60025,29.692612
29255,ENBV,Berlevåg Airport,70.871517,29.034097
2572,ENCN,"Kristiansand Airport, Kjevik",58.204201,8.08537
2574,ENDU,Bardufoss Airport,69.055801,18.5404
2575,ENEV,"Harstad/Narvik Airport, Evenes",68.49130249,16.67810059
2577,ENFL,Florø Airport,61.58359909,5.024720192
2578,ENGM,"Oslo Airport, Gardermoen",60.193901,11.1004
2579,ENHD,"Haugesund Airport, Karmøy",59.345299,5.20836
28115,ENHF,Hammerfest Airport,70.679703,23.6686
29261,ENHV,"Honningsvåg Airport, Valan",71.009697,25.983601
2581,ENKB,"Kristiansund Airport, Kvernberget",63.111801,7.82452
2583,ENKR,"Kirkenes Airport, Høybuktmoen",69.7258,29.8913
29264,ENLK,Leknes Airport,68.15249634,13.6093998
29265,ENMH,Mehamn Airport,71.029701,27.8267
2585,ENML,"Molde Airport, Årø",62.744701,7.2625
2586,ENMS,"Mosjøen Airport, Kjærstad",65.783997,13.2149
2587,ENNA,"Lakselv Airport, Banak",70.068802,24.973499
2588,ENNO,Notodden Airport,59.565071,9.213152
2589,ENOL,Ørland Airport,63.69889832,9.604000092
28114,ENOV,"Ørsta-Volda Airport, Hovden",62.18000031,6.074100018
29277,ENRA,"Mo i Rana Airport, Røssvoll",66.36389923,14.30140018
29278,ENRM,"Rørvik Airport, Ryum",64.83830261,11.14610004
2591,ENRO,Røros Airport,62.57839966,11.34230042
2592,ENRY,"Moss Airport, Rygge",59.378817,10.785439
2593,ENSB,"Svalbard Airport, Longyear",78.24610138,15.46560001
29281,ENSH,"Svolvær Airport, Helle",68.243301,14.6692
29282,ENSK,"Stokmarknes Airport, Skagen",68.578827,15.033417
2594,ENSN,Skien Airport,59.185001,9.56694
2595,ENSO,"Stord Airport, Sørstokken",59.791901,5.34085
2596,ENSR,Sørkjosen Airport,69.786797,20.9594
2597,ENSS,"Vardø Airport, Svartnes",70.3554,31.044901
2598,ENST,"Sandnessjøen Airport, Stokka",65.956802,12.4689
2599,ENTC,"Tromsø Airport, Langnes",69.683296,18.9189
2600,ENTO,"Sandefjord Airport, Torp",59.186699,10.2586
2601,ENVA,"Trondheim Airport, Værnes",63.457802,10.924
29284,ENVD,Vadsø Airport,70.0653,29.8447
2602,ENZV,"Stavanger Airport, Sola",58.876701,5.63778
2604,EPBY,Bydgoszcz Ignacy Jan Paderewski Airport,53.096802,17.977699
2605,EPCE,Cewice Naval Air Base,54.416525,17.765734
2607,EPDE,Deblin Military Air Base,51.551021,21.892322
2608,EPGD,Gdańsk Lech Wałęsa Airport,54.377602,18.4662
29975,EPIR,Inowroclaw Military Air Base,52.82939911,18.33060074
2609,EPKK,Kraków John Paul II International Airport,50.077702,19.7848
2612,EPKS,Krzesiny Military Air Base,52.331699,16.9664
2613,EPKT,Katowice Wojciech Korfanty International Airport,50.476015,19.080705
309484,EPLB,Lublin Airport,51.240157,22.713461
2615,EPLK,Łask Air Base,51.551701,19.1791
2616,EPLL,Łódź Władysław Reymont Airport,51.721901,19.3981
31015,EPLY,Leźnica Wielka Air Base,52.004945,19.143792
2618,EPMB,Malbork Królewo Air Base,54.026598,19.135718
2619,EPMI,Miroslawiec Military Air Base,53.3951,16.0828
2621,EPMM,Minsk Mazowiecki Military Air Base,52.19549942,21.65589905
2622,EPMO,Modlin Airport,52.451099,20.6518
2625,EPPO,Poznań-Ławica Airport,52.421598,16.823359
2627,EPPW,Powidz Military Air Base,52.380087,17.853155
2628,EPRA,Warsaw Radom Airport,51.38937,21.214742
2629,EPRZ,Rzeszów-Jasionka Airport,50.109791,22.024155
2630,EPSC,Solidarity Szczecin–Goleniów Airport,53.584702,14.9022
2633,EPSN,Swidwin Military Air Base,53.7906,15.8263
2635,EPSY,Olsztyn-Mazury Airport,53.481899,20.9377
31016,EPTM,Tomaszów Mazowiecki Military Air Base,51.5844,20.097799
2637,EPWA,Warsaw Chopin Airport,52.165699,20.9671
2638,EPWR,Copernicus Wrocław Airport,51.103719,16.882096
2639,EPZG,Zielona Góra-Babimost Airport,52.1385,15.7986
2643,ESCF,Malmen Air Base,58.397666,15.522422
2646,ESDF,Ronneby Airport,56.266701,15.265
2647,ESFR,Råda Air Base,58.4981,13.0532
2648,ESGG,Göteborg Landvetter Airport,57.6628,12.2798
2649,ESGJ,Jönköping Airport,57.75759888,14.06869984
2652,ESGP,Säve Airport,57.7747,11.8704
2653,ESGR,Skövde Airport,58.456402,13.9727
2654,ESGT,Trollhättan-Vänersborg Airport,58.31809998,12.34500027
2656,ESIB,Såtenäs Air Base,58.426399,12.7144
2658,ESKK,Karlskoga Airport,59.345901,14.4959
2659,ESKM,Mora Airport,60.957901,14.5114
2660,ESKN,Stockholm Skavsta Airport,58.788601,16.912201
316498,ESKS,Scandinavian Mountains Airport,61.158393,12.842503
2664,ESMK,Kristianstad Airport,55.9217,14.0855
2668,ESMQ,Kalmar Airport,56.685501,16.2876
2669,ESMS,Malmö Sturup Airport,55.535564,13.376327
2670,ESMT,Halmstad Airport,56.69110107,12.82019997
2672,ESMX,Växjö Kronoberg Airport,56.92910004,14.72799969
2676,ESNG,Gällivare Airport,67.13240051,20.81459999
2679,ESNK,Kramfors-Sollefteå Höga Kusten Airport,63.048599,17.7689
2680,ESNL,Lycksele Airport,64.548302,18.7162
2682,ESNN,Sundsvall-Härnösand Airport,62.52809906,17.44389915
2683,ESNO,Örnsköldsvik Airport,63.40829849,18.98999977
2685,ESNQ,Kiruna Airport,67.8219986,20.33679962
2687,ESNS,Skellefteå Airport,64.62480164,21.07690048
2689,ESNU,Umeå Airport,63.79180145,20.28280067
2690,ESNV,Vilhelmina South Lapland Airport,64.579102,16.833599
2691,ESNX,Arvidsjaur Airport,65.59030151,19.28190041
2692,ESNY,Söderhamn Airport,61.261501,17.0991
29358,ESNZ,Åre Östersund Airport,63.194135,14.500322
2693,ESOE,Örebro Airport,59.22370148,15.03800011
2695,ESOK,Karlstad Airport,59.444698,13.3374
2696,ESOW,Stockholm Västerås Airport,59.58940125,16.63360023
2697,ESPA,Luleå Airport,65.5438,22.122
2701,ESSA,Stockholm-Arlanda Airport,59.64849,17.928829
2702,ESSB,Stockholm-Bromma Airport,59.35440063,17.94169998
2703,ESSD,Dala Airport,60.422001,15.5152
2705,ESSK,Gävle Sandviken Airport,60.5933,16.951401
2706,ESSL,Linköping City Airport,58.40620041,15.68050003
2707,ESSP,Norrköping Airport,58.5862999,16.25060081
2708,ESST,Torsby Airport,60.1576,12.9913
2709,ESSU,Eskilstuna Airport,59.351101,16.708401
2710,ESSV,Visby Airport,57.66279984,18.34620094
2711,ESTA,Ängelholm-Helsingborg Airport,56.29610062,12.84710026
2712,ESTL,Ljungbyhed Airfield,56.082802,13.2125
2713,ESUD,Storuman Airport,64.960899,17.6966
2717,ETAD,Spangdahlem Air Base,49.976507,6.698413
2718,ETAR,Ramstein Air Base,49.436901,7.60028
2721,ETHB,Bückeburg Air Base,52.2785,9.08217
2722,ETHC,Celle Army Airfield,52.591202,10.0221
2724,ETHF,Fritzlar Army Airfield,51.1146,9.286
2725,ETHL,Laupheim Air Base,48.220299,9.91002
2727,ETHN,Niederstetten Army Air Base,49.39162,9.956747
2729,ETHS,Faßberg Air Base,52.919399,10.185827
2730,ETIC,Grafenwöhr Army Air Field,49.6987,11.9402
2732,ETIH,Hohenfels Army Airfield,49.216541,11.836064
2734,ETMN,Sea-Airport Cuxhaven/Nordholz / Nordholz Naval Airbase,53.767689,8.659201
2735,ETND,Diepholz Air Base,52.585556,8.342222
2736,ETNG,Geilenkirchen Air Base,50.9608,6.04242
2737,ETNH,Hohn Air Base,54.312199,9.53817
2739,ETNL,Rostock-Laage Airport,53.918201,12.2783
2740,ETNN,Nörvenich Air Base,50.8312,6.65817
2741,ETNS,Schleswig Air Base,54.459301,9.51633
2742,ETNT,Wittmundhafen Air Base,53.547798,7.66733
2744,ETNW,Wunstorf Air Base,52.457298,9.42717
2747,ETOU,Wiesbaden Army Airfield,50.04980087,8.325400352
2749,ETSB,Büchel Air Base,50.173801,7.06333
2752,ETSH,Holzdorf Air Base,51.767799,13.1677
2753,ETSI,Ingolstadt Manching Airport,48.71569824,11.5340004
2754,ETSL,Lechfeld Air Base,48.185504,10.8612
2755,ETSN,Neuburg Air Base,48.710999,11.2115
31029,EVKA,Jēkabpils Air Base,56.534698,25.8925
2757,EVLA,Liepāja International Airport,56.517502,21.096901
2758,EVRA,Riga International Airport,56.920752,23.970711
31031,EVTA,Jūrmala Airport,56.9422,23.2239
2760,EYKA,Kaunas International Airport,54.96390152,24.08480072
30020,EYKD,Kėdainiai Air Base,55.31169891,23.95639992
2762,EYPA,Palanga International Airport,55.97320175,21.09390068
2763,EYPP,Panevėžys Air Base,55.72940063,24.46080017
2764,EYSA,Šiauliai International Airport,55.89390182,23.39500046
2765,EYSB,Barysiai Airfield,56.070599,23.5581
2766,EYVI,Vilnius International Airport,54.634102,25.285801
2767,FAAB,Alexander Bay Airport,-28.575001,16.5333
2768,FAAG,Aggeneys Airport,-29.281799,18.8139
2771,FABE,Bisho Airport,-32.897099,27.2791
2772,FABL,Bram Fischer International Airport,-29.092699,26.302401
46533,FABR,Barberton Airport,-25.717147,30.974974
2775,FACT,Cape Town International Airport,-33.96480179,18.60169983
2779,FAEL,King Phalo Airport,-33.035599,27.825899
2780,FAEO,Ermelo Airport,-26.4956,29.979799
2781,FAFB,Ficksburg Sentraoes Airport,-28.82309914,27.90889931
2782,FAGC,Grand Central Airport,-25.98629951,28.14010048
2783,FAGG,George Airport,-34.0056,22.378902
2784,FAGM,Rand Airport,-26.2425,28.151199
2789,FAHR,Harrismith Airport,-28.2351,29.106199
2793,FAKD,P C Pelser Airport,-26.871099,26.718
2794,FAKM,Kimberley Airport,-28.80279922,24.76519966
2795,FAKN,Kruger Mpumalanga International Airport,-25.38319969,31.10560036
2798,FAKU,Johan Pienaar Airport,-27.45669937,23.41139984
2799,FAKZ,Kleinsee Airport,-29.68840027,17.09399986
2800,FALA,Lanseria International Airport,-25.938499,27.9261
2801,FALC,Lime Acres Finsch Mine Airport,-28.36009979,23.43910027
300795,FALE,King Shaka International Airport,-29.61444444,31.11972222
2805,FALW,Langebaanweg Airport,-32.96889877,18.1602993
2806,FALY,Ladysmith Airport,-28.58169937,29.74970055
2808,FAMD,Malamala Airport,-24.816866,31.544085
2809,FAMG,Margate Airport,-30.85740089,30.34300041
2812,FAMM,Mmabatho International Airport,-25.79840088,25.54800034
2814,FAMS,Morningside Farm Airport,-25.7045002,26.9090004
2815,FAMU,Mkuze Airport,-27.62610054,32.04430008
2816,FANC,Newcastle Airport,-27.77059937,29.9769001
2819,FAOH,Oudtshoorn Airport,-33.60699844,22.18899918
31055,FAOR,O.R. Tambo International Airport,-26.1392,28.246
2820,FAPE,Chief Dawid Stuurman International Airport,-33.984901,25.6173
2821,FAPG,Plettenberg Bay Airport,-34.08816,23.328723
2822,FAPH,Hendrik Van Eck Airport,-23.93720055,31.15539932
2823,FAPI,Pietersburg Municipal Airport,-23.9261,29.4844
2824,FAPJ,Port St Johns Airport,-31.60612,29.52175
2825,FAPM,Pietermaritzburg Airport,-29.64900017,30.39870071
2827,FAPP,Polokwane International Airport,-23.845269,29.458615
2828,FAPS,Potchefstroom Airport,-26.67099953,27.08189964
2830,FAQT,Queenstown Airport,-31.92020035,26.88220024
2831,FARB,Richards Bay Airport,-28.74099922,32.09209824
2832,FARG,Rustenburg Airport,-25.6443,27.271099
2833,FARS,Robertson Airport,-33.812199,19.9028
2834,FASB,Springbok Airport,-29.68930054,17.93959999
2835,FASC,Secunda Airport,-26.52409935,29.17009926
2836,FASD,Saldanha/Vredenburg Airport,-32.9641,17.969299
2838,FASK,Swartkop Air Force Base,-25.8097,28.1646
2839,FASS,Sishen Airport,-27.6486,22.9993
2841,FASZ,Skukuza Airport,-24.96089935,31.58869934
2845,FATZ,Tzaneen Airport,-23.8244,30.3293
2846,FAUL,Prince Mangosuthu Buthelezi Airport,-28.32060051,31.41650009
2847,FAUP,Pierre Van Ryneveld Airport,-28.39909935,21.2602005
2848,FAUT,K. D. Matanzima Airport,-31.54636318,28.6733551
2849,FAVB,Vryburg Airport,-26.98240089,24.72879982
2850,FAVG,Virginia Airport,-29.770599,31.058399
2852,FAVR,Vredendal Airport,-31.64100075,18.5447998
2853,FAVV,Vereeniging Airport,-26.566401,27.9608
2854,FAWB,Wonderboom Airport,-25.6539,28.224199
2856,FAWK,Waterkloof Air Force Base,-25.82999992,28.22249985
2858,FAYP,Ysterplaat Air Force Base,-33.9002,18.498301
2860,FBFT,P G Matante Intl,-21.15914,27.468545
2861,FBJW,Jwaneng Airport,-24.602301,24.691
2862,FBKE,Kasane Airport,-17.832899,25.162399
2863,FBMN,Maun Airport,-19.970491,23.431409
2864,FBSK,Sir Seretse Khama International Airport,-24.555201,25.9182
2865,FBSN,Sua Pan Airport,-20.5534,26.115801
2866,FBSP,Selebi Phikwe Airport,-22.0583,27.8288
2868,FCBB,Maya-Maya Airport,-4.251699924,15.25300026
323021,FCOD,Oyo Ollombo Airport,-1.226666,15.91
2869,FCOO,Owando Airport,-0.524566,15.93782
2870,FCOU,Ouesso Airport,1.61599,16.037901
30920,FCPL,Ngot Nzoungou Airport,-4.20635,12.6599
2871,FCPP,Antonio Agostinho-Neto International Airport,-4.81603,11.8866
2872,FDMS,Matsapha Airport,-26.528999,31.307501
308033,FDSK,King Mswati III International Airport,-26.358611,31.716944
2873,FEFF,Bangui M'Poko International Airport,4.398479939,18.51880074
2874,FEFT,Berbérati Airport,4.221580029,15.78639984
2875,FGBT,Bata Airport,1.90547,9.80568
2876,FGSL,Malabo Airport,3.755270004,8.708720207
2877,FHAW,RAF Ascension Island,-7.9696,-14.3937
2878,FIMP,Sir Seewoosagur Ramgoolam International Airport,-20.430201,57.683601
2879,FIMR,Sir Charles Gaetan Duval Airport,-19.7577,63.361
2880,FJDG,Diego Garcia Naval Support Facility,-7.31327,72.411102
2881,FKKC,Tiko Airport,4.089190006,9.3605299
2882,FKKD,Douala International Airport,4.006080151,9.719479561
2883,FKKL,Salak Airport,10.4513998,14.25739956
2884,FKKM,Foumban Nkounja Airport,5.63692,10.7508
2885,FKKN,N'Gaoundéré Airport,7.357009888,13.55920029
2886,FKKR,Garoua International Airport,9.335889816,13.37010002
2887,FKKU,Bafoussam Airport,5.536920071,10.35459995
2888,FKKV,Bamenda Airport,6.03924,10.1226
2889,FKKY,Yaoundé Airport,3.83604,11.5235
2890,FKYS,Yaoundé Nsimalen International Airport,3.72256,11.5533
2891,FLKE,Kasompe Airport,-12.5728,27.8939
2892,FLLC,Lusaka City Airport,-15.4138,28.3307
2893,FLLI,Harry Mwanga Nkumbula International Airport,-17.8218,25.822701
2894,FLLS,Kenneth Kaunda International Airport,-15.330833,28.452722
2895,FLMF,Mfuwe Airport,-13.25889969,31.93659973
2896,FLMG,Mongu Airport,-15.2545,23.1623
2897,FLND,Peter Zuze Air Force Base,-12.997222,28.663889
525659,FLSK,Simon Mwansa Kapwepwe International Airport,-12.961667,28.516667
2898,FLSO,Southdowns Airport,-12.9005,28.1499
2901,FMCH,Prince Said Ibrahim International Airport,-11.5337,43.2719
2902,FMCI,Mohéli Bandar Es Eslam Airport,-12.2981,43.766399
2903,FMCV,Ouani Airport,-12.131047,44.430044
2904,FMCZ,Dzaoudzi Pamandzi International Airport,-12.809319,45.281815
2905,FMEE,Roland Garros Airport,-20.890087,55.518894
2906,FMEP,Pierrefonds Airport,-21.319362,55.422506
2908,FMMI,Ivato Airport,-18.7969,47.478802
2909,FMMN,Miandrivazo Airport,-19.562799,45.450802
2910,FMMS,Sainte Marie Airport,-17.093901,49.8158
2911,FMMT,Toamasina Ambalamanasy Airport,-18.109501,49.392502
2912,FMMV,Morondava Airport,-20.2847,44.3176
2913,FMNA,Arrachart Airport,-12.3494,49.291698
2914,FMNC,Mananara Nord Airport,-16.1639,49.7738
2915,FMND,Andapa Airport,-14.65170002,49.62060165
2917,FMNH,Antsirabe Airport,-14.9994,50.320202
2918,FMNL,Analalava Airport,-14.629514,47.763555
2919,FMNM,Amborovy Airport,-15.666842,46.351233
2920,FMNN,Fascene Airport,-13.3121,48.3148
2921,FMNQ,Besalampy Airport,-16.74453,44.482484
2922,FMNR,Maroantsetra Airport,-15.437742,49.689081
2923,FMNS,Sambava Airport,-14.2786,50.174702
2924,FMNV,Vohemar Airport,-13.3758,50.0028
2925,FMNW,Ambalabe Airport,-14.8988,47.9939
2927,FMSD,Tôlanaro Airport,-25.038099,46.9561
2928,FMSF,Fianarantsoa Airport,-21.441601,47.111698
2930,FMSK,Manakara Airport,-22.119699,48.021702
2931,FMSM,Mananjary Airport,-21.201799,48.358299
2932,FMSR,Morombe Airport,-21.753837,43.374753
2933,FMST,Toliara Airport,-23.3834,43.7285
2934,FNBC,Mbanza Congo Airport,-6.269899845,14.24699974
2935,FNBG,Benguela Airport,-12.609,13.4037
312665,FNBJ,Dr. Antonio Agostinho Neto International Airport,-9.050734,13.499078
2936,FNCA,Cabinda Airport,-5.596990108,12.18840027
30813,FNCT,Catumbela Airport,-12.4792,13.4869
2937,FNDU,Dundo Airport,-7.400889874,20.81850052
2938,FNGI,Ngjiva Pereira Airport,-17.0435009,15.68379974
2939,FNHU,Albano Machado Airport,-12.8089,15.7605
2940,FNKU,Kuito Airport,-12.40460014,16.94739914
2942,FNLU,Quatro de Fevereiro International Airport,-8.85837,13.2312
2944,FNMA,Malanje Airport,-9.525090218,16.31240082
2945,FNME,Menongue Airport,-14.6576004,17.71980095
2946,FNMO,Welwitschia Mirabilis International Airport,-15.2612,12.1468
2947,FNNG,Negage Airport,-7.754509926,15.2876997
2948,FNPA,Porto Amboim Airport,-10.722,13.7655
2949,FNSA,Saurimo Airport,-9.68907,20.4319
2950,FNSO,Soyo Airport,-6.141089916,12.37180042
2951,FNSU,Sumbe Airport,-11.1679,13.8475
2952,FNUB,Lubango Airport,-14.92469978,13.57499981
2953,FNUE,Luena Airport,-11.7681,19.897699
2954,FNUG,Uige Airport,-7.60307,15.0278
2955,FNXA,Xangongo Airport,-16.7553997,14.96529961
2957,FOGK,Koulamoutou Mabimbi Airport,-1.18461,12.4413
2958,FOGM,Mouilla Ville Airport,-1.84514,11.0567
2959,FOGO,Oyem Airport,1.543110013,11.58139992
2960,FOGQ,Okondja Airport,-0.665214,13.6731
2961,FOGR,Lambarene Airport,-0.704389,10.2457
2962,FOOB,Bitam Airport,2.07564,11.4932
2963,FOOG,Port Gentil Airport,-0.711739004,8.754380226
2964,FOOH,Omboue Hospital Airport,-1.57473,9.26269
2965,FOOK,Makokou Airport,0.579210997,12.89089966
2966,FOOL,Libreville Leon M'ba International Airport,0.458600014,9.412280083
2967,FOON,M'Vengue El Hadj Omar Bongo Ondimba International Airport,-1.656159997,13.43799973
2968,FPPR,Principe Airport,1.66294,7.41174
2969,FPST,São Tomé International Airport,0.378175,6.71215
2970,FQBR,Beira Airport,-19.7964,34.9076
2971,FQCH,Chimoio Airport,-19.15130043,33.42900085
2972,FQIN,Inhambane Airport,-23.8764,35.408501
2973,FQLC,Lichinga Airport,-13.274,35.2663
2975,FQMA,Maputo Airport,-25.920799,32.572601
2976,FQMD,Mueda Airport,-11.6729,39.563099
2977,FQMP,Mocímboa da Praia Airport,-11.3618,40.3549
2980,FQNP,Nampula Airport,-15.10560036,39.28179932
2981,FQPB,Pemba Airport,-12.993302,40.524867
2982,FQQL,Quelimane Airport,-17.85549927,36.86909866
2984,FQTT,Chingozi Airport,-16.10479927,33.64020157
2986,FQVL,Vilankulo Airport,-22.01840019,35.31330109
2993,FSIA,Seychelles International Airport,-4.67434,55.521801
2994,FSPP,Praslin Island Airport,-4.319256,55.691561
507351,FTFY,Ouadi Doum Air Base,18.52793,20.188644
2996,FTTC,Abeche Airport,13.847,20.844299
2997,FTTD,Moundou Airport,8.628503,16.074241
2998,FTTJ,N'Djamena International Airport,12.1337,15.034
2999,FTTY,Faya-Largeau Airport,17.917101,19.111099
3000,FVBU,Joshua Mqabuko Nkomo International Airport,-20.021254,28.626296
3003,FVCZ,Buffalo Range Airport,-21.008101,31.5786
3004,FVFA,Victoria Falls International Airport,-18.09589958,25.8390007
3005,FVHA,Robert Gabriel Mugabe International Airport,-17.931801,31.0928
3006,FVKB,Kariba International Airport,-16.5198,28.885
3008,FVMT,Mutoko Airport,-17.4319,32.184502
3010,FVMV,Masvingo International Airport,-20.0553,30.8591
3013,FVTL,Gweru - Thornhill Air Base,-19.436718,29.861945
3014,FVWN,Hwange National Park Airport,-18.6299,27.021
3015,FWCL,Chileka International Airport,-15.67910004,34.97399902
30602,FWDW,Dwangwa Airport,-12.517527,34.131877
3016,FWKA,Karonga Airport,-9.953571,33.893264
3018,FWKI,Kamuzu International Airport,-13.7894,33.780998
3020,FWUU,Mzuzu Airport,-11.4447,34.011799
3022,FXMM,Moshoeshoe I International Airport,-29.462299,27.5525
3024,FYAR,Arandis Airport,-22.461875,14.979322
3026,FYGF,Grootfontein Airport,-19.6022,18.1227
3027,FYKM,Katima Mulilo Airport,-17.634258,24.176688
3028,FYKT,Keetmanshoop Airport,-26.539801,18.111401
3029,FYLZ,Luderitz Airport,-26.68740082,15.24289989
3030,FYML,Mariental Airport,-24.6054,17.9254
3031,FYOA,Ondangwa Airport,-17.878201,15.9526
3032,FYOG,Oranjemund Airport,-28.5847,16.446699
3035,FYRU,Rundu Airport,-17.9564991,19.71940041
3036,FYTM,Tsumeb Airport,-19.26189995,17.73250008
3037,FYWB,Walvis Bay Airport,-22.979332,14.647102
3038,FYWE,Eros Airport,-22.61219978,17.08040047
3039,FYWH,Hosea Kutako International Airport,-22.4799,17.4709
3040,FZAA,Ndjili International Airport,-4.38575,15.4446
3041,FZAB,Ndolo Airport,-4.326660156,15.32750034
3044,FZBO,Bandundu Airport,-3.31132,17.381701
3045,FZCA,Kikwit Airport,-5.03577,18.785601
3046,FZEA,Mbandaka Airport,0.022600001,18.2887001
3047,FZFD,Gbadolite Airport,4.252745,20.975271
3048,FZFK,Gemena Airport,3.23537,19.771299
3050,FZGA,Lisala Airport,2.17066,21.496901
3052,FZIC,Bangoka International Airport,0.481638998,25.33799934
3053,FZJH,Matari Airport,2.82761,27.588301
3054,FZKA,Bunia Airport,1.565743,30.220685
3055,FZKJ,Buta Zega Airport,2.818058,24.793997
3056,FZMA,Bukavu Kavumu Airport,-2.30898,28.8088
3057,FZNA,Goma International Airport,-1.66617,29.237929
3058,FZOA,Kindu Airport,-2.919179916,25.91539955
3059,FZQA,Lubumbashi International Airport,-11.59130001,27.53089905
3060,FZQM,Kolwezi Airport,-10.7659,25.505699
3061,FZRF,Kalemie Airport,-5.87556,29.25
3062,FZSA,Kamina Air Base,-8.64202,25.252899
3063,FZUA,Kananga Airport,-5.90005,22.4692
3064,FZWA,Mbuji Mayi Airport,-6.121240139,23.56900024
3066,GABS,Modibo Keita International Airport,12.5335,-7.94994
3067,GAGO,Gao Airport,16.2484,-0.005456
3068,GAKY,Kayes Dag Dag Airport,14.482473,-11.39971
3069,GAMB,Mopti Ambodédjo International Airport,14.5128,-4.07956
3071,GATB,Timbuktu Airport,16.730499,-3.00758
3076,GBYD,Banjul International Airport,13.338,-16.652201
3077,GCFV,Fuerteventura Airport,28.4527,-13.8638
3079,GCHI,El Hierro Airport,27.8148,-17.8871
3080,GCLA,La Palma Airport,28.626499,-17.7556
3081,GCLP,Gran Canaria Airport,27.9319,-15.3866
3082,GCRR,César Manrique-Lanzarote Airport,28.945499,-13.6052
3083,GCTS,Tenerife Sur Airport,28.0445,-16.5725
3084,GCXO,Tenerife Norte-Ciudad de La Laguna Airport,28.4827,-16.341499
3093,GEML,Melilla Airport,35.2798,-2.95626
31728,GFBO,Bo Airport,7.9444,-11.761
31741,GFKE,Kenema Airport,7.896364,-11.174126
3095,GFLL,Lungi International Airport,8.61644,-13.1955
32689,GFYE,Yengema Airport,8.61047,-11.0454
3097,GGOV,Osvaldo Vieira International Airport,11.89480019,-15.65369987
3098,GLMR,Spriggs Payne Airport,6.28906,-10.7587
3099,GLRB,Roberts International Airport,6.23379,-10.3623
3101,GMAD,Al Massira Airport,30.322478,-9.412003
3102,GMAT,Tan Tan Airport,28.44820023,-11.16129971
429847,GMAZ,Zagora Airport,30.263858,-5.853341
300605,GMFB,Bouarfa Airport,32.514306,-1.983056
3103,GMFF,Fes Saïss International Airport,33.927299,-4.97796
3105,GMFK,Moulay Ali Cherif Airport,31.94750023,-4.398330212
3106,GMFM,Bassatine Airport,33.879101,-5.51512
3107,GMFO,Oujda Angads Airport,34.789558,-1.926041
3108,GMMA,Smara Airport,26.731987,-11.683655
3109,GMME,Rabat-Salé Airport,34.051498,-6.75152
3110,GMMH,Dakhla Airport,23.7183,-15.932
3111,GMMI,Essaouira-Mogador Airport,31.397499,-9.68167
3112,GMML,Hassan I Airport,27.142467,-13.224947
3113,GMMN,Mohammed V International Airport,33.3675,-7.58997
3114,GMMW,Nador Al Aaroui International Airport,34.9888,-3.02821
3115,GMMX,Menara Airport,31.606899,-8.0363
3116,GMMY,Kenitra Air Base,34.298901,-6.59588
3117,GMMZ,Ouarzazate Airport,30.93910027,-6.909430027
3119,GMTA,Cherif Al Idrissi Airport,35.177101,-3.83952
3120,GMTN,Sania Ramel Airport,35.594299,-5.32002
3121,GMTT,Tangier Ibn Battuta Airport,35.731741,-5.921459
325736,GOBD,Blaise Diagne International Airport,14.670878,-17.072829
3122,GOGG,Ziguinchor Airport,12.5556,-16.281799
3123,GOGS,Cap Skirring Airport,12.39533,-16.748
3124,GOOK,Kaolack Airport,14.14690018,-16.05130005
3125,GOOY,Léopold Sédar Senghor International Airport,14.7397,-17.4902
31879,GOSM,Ouro Sogui Airport,15.5936,-13.3228
3126,GOSS,Saint Louis Airport,16.049814,-16.461039
3127,GOTB,Bakel Airport,14.84729958,-12.46829987
3128,GOTK,Kédougou Airport,12.57229996,-12.22029972
3129,GOTT,Tambacounda Airport,13.7368,-13.6531
323315,GQNO,Nouakchott–Oumtounsy International Airport,18.31,-15.969722
3137,GQPA,Atar International Airport,20.5067997,-13.04319954
3138,GQPP,Nouadhibou International Airport,20.93309975,-17.03000069
3146,GUCY,Conakry International Airport,9.57689,-13.612
3150,GVAC,Amílcar Cabral International Airport,16.7414,-22.9494
3151,GVBA,Rabil Airport,16.1364994,-22.88890076
3152,GVMA,Maio Airport,15.1559,-23.21369934
3153,GVNP,Nelson Mandela International Airport,14.941126,-23.484728
3154,GVSN,Preguiça Airport,16.588852,-24.284132
3155,GVSV,São Pedro Airport,16.8332,-25.0553
3157,HAAB,Addis Ababa Bole International Airport,8.97789,38.799301
3159,HAAM,Arba Minch Airport,6.03939,37.5905
3160,HAAX,Axum Airport,14.1468,38.7728
3161,HABD,Bahir Dar Airport,11.6081,37.321602
3162,HADR,Aba Tenna Dejazmach Yilma International Airport,9.624699593,41.85419846
3163,HAGM,Gambela Airport,8.12876,34.563099
3164,HAGN,Gondar Airport,12.5199,37.433998
3165,HAGO,Gode Airport,5.935130119,43.57860184
300239,HAHM,Harar Meda Airport,8.7163,39.0059
313314,HAJJ,Wilwal International Airport,9.3325,42.9121
3166,HAJM,Jimma Airport,7.666090012,36.8166008
30612,HAKD,Kebri Dahar Airport,6.732577,44.241339
30664,HALA,Hawassa International Airport,7.099869,38.396187
3168,HAMK,Alula Aba Nega Airport,13.4674,39.533501
3169,HASO,Asosa Airport,10.01850033,34.5862999
3170,HBBA,Bujumbura Melchior Ndadaye International Airport,-3.32402,29.318501
3171,HCMH,Egal International Airport,9.513207,44.082389
3172,HCMI,Berbera Airport,10.385035,44.936723
3173,HCMK,Kismayo Airport,-0.377353,42.459202
31899,HCMM,Aden Adde International Airport,2.01444006,45.30469894
3174,HDAM,Djibouti-Ambouli Airport,11.5473,43.1595
42471,HE16,Birma Air Base,30.836599,30.936001
2368,HE28,Gebel El Basur Air Base,30.540501,30.5602
2372,HE32,Al Mansurah Airbase,30.9676,31.4342
2375,HE35,Abu Suwayr Air Base,30.5727005,32.09529877
2376,HE36,Bardawil International Airport,30.410714,33.15535
2377,HE37,Bilbeis Air Base,30.394899,31.6014
2382,HE42,Quesna Airport,30.579,31.1292
3175,HEAL,El Alamein International Airport,30.924324,28.46161
3176,HEAR,El Arish International Airport,31.078565,33.836791
3177,HEAT,Asyut International Airport,27.050818,31.016309
3179,HEAZ,Almaza Air Force Base,30.091702,31.359739
3180,HEBA,Borj El Arab International Airport,30.93249,29.696437
3181,HEBL,Abu Simbel Airport,22.367657,31.609962
3182,HEBS,Bani Sweif Air Base,29.20224,31.013471
3183,HECA,Cairo International Airport,30.111534,31.396694
2356,HECP,Capital International Airport,30.074293,31.84296
3184,HECW,Cairo West Air Base,30.116431,30.915535
3186,HEGN,Hurghada International Airport,27.176776,33.796692
3188,HEGR,El Jora Airport,31.078138,34.153131
3189,HEGS,Jiyanklis Air Base,30.819799,30.1912
2383,HEIS,Ismailia Air Base,30.597951,32.235689
3191,HELX,Luxor International Airport,25.671037,32.706451
3192,HEMA,Marsa Alam International Airport,25.555548,34.59245
3193,HEMM,Marsa Matruh International Airport,31.325464,27.221716
3196,HEPS,Port Said International Airport,31.279285,32.240582
3197,HESC,Saint Catherine International Airport,28.684601,34.062681
300893,HESG,Sohag International Airport,26.342515,31.743017
3198,HESH,Sharm El Sheikh International Airport,27.977272,34.394717
3199,HESN,Aswan International Airport,23.968137,32.824445
335334,HESX,Sphinx International Airport,30.108179,30.895728
3200,HETB,Taba International Airport,29.594496,34.775752
3202,HHAS,Asmara International Airport,15.29189968,38.91070175
3203,HHMS,Massawa International Airport,15.67,39.370098
3204,HHSB,Assab International Airport,13.0718,42.645
3247,HJJJ,Juba International Airport,4.87201,31.601101
28481,HKAM,Amboseli Airport,-2.645050049,37.25310135
3205,HKEL,Eldoret International Airport,0.404457986,35.23889923
3206,HKJK,Jomo Kenyatta International Airport,-1.319239974,36.92779922
3208,HKKI,Kisumu Airport,-0.086139001,34.72890091
3209,HKKT,Kitale Airport,0.971989,34.958599
3210,HKLK,Lokichogio Airport,4.20412,34.348202
3211,HKLO,Lodwar Airport,3.12197,35.6087
3212,HKLU,Manda Airport,-2.252431,40.912892
31988,HKML,Malindi Airport,-3.229310036,40.10169983
3213,HKMO,Moi International Airport,-4.03483,39.5942
31594,HKMS,Mara Serena Lodge Airstrip,-1.406111,35.008057
32066,HKNL,Nanyuki Airport,-0.062399,37.041008
3215,HKNW,Nairobi Wilson Airport,-1.321720004,36.81480026
44467,HKNY,Laikipia Air Base,0.032933,37.026901
3216,HKRE,Moi Air Base,-1.27727,36.862301
3217,HKWJ,Wajir Airport,1.73324,40.091599
4582,HL56,Matan al-Sarra Air Base,21.6877,21.8309
4594,HL68,Bombah Airport,32.4529,23.118601
4602,HL77,Okba Ibn Nafa Air Base,32.47340012,11.89789963
3219,HLGD,Sirt International Airport / Ghardabiya Airbase,31.063499,16.594999
3221,HLGT,Ghat Airport,25.14559937,10.14260006
3222,HLKF,Kufra Airport,24.17869949,23.31399918
3223,HLLB,Benina International Airport,32.096802,20.269501
3224,HLLM,Mitiga International Airport,32.89177,13.287878
3225,HLLQ,Al Abraq International Airport,32.7887,21.9643
3226,HLLS,Sabha Airport,26.992452,14.466162
3228,HLMB,Marsa al Brega Airport,30.378099,19.576401
3232,HLTD,Ghadames East Airport,30.151699,9.71531
3236,HRYG,Gisenyi Airport,-1.67719996,29.25889969
3237,HRYR,Kigali International Airport,-1.96863,30.1395
3238,HRZA,Kamembe Airport,-2.462239981,28.90789986
3239,HSDN,Dongola Airport,19.15390015,30.43009949
300862,HSFA,Paloich Airport,10.529167,32.500556
3241,HSFS,El Fasher Airport,13.61489964,25.32460022
3242,HSKA,Kassala Airport,15.38749981,36.3288002
300673,HSMN,Merowe Airport,18.443333,31.843333
3244,HSNN,Nyala Airport,12.0535,24.9562
3245,HSOB,El-Obeid Airport,13.1532,30.2327
3246,HSPN,Port Sudan New International Airport,19.43359947,37.23410034
347295,HSSG,Sabera Geneina Airport,13.4774,22.53722
3249,HSSK,Khartoum International Airport,15.5895,32.5532
3248,HSSM,Malakal Airport,9.55897,31.652201
30553,HSWW,Wau Airport,7.72583,27.975
3250,HTAR,Arusha Airport,-3.367789984,36.63330078
3251,HTDA,Julius Nyerere International Airport,-6.87811,39.202599
3252,HTDO,Dodoma Airport,-6.17044,35.752602
318875,HTGW,Songwe Airport,-8.919942,33.273981
3253,HTIR,Iringa Airport,-7.66863,35.752102
3254,HTKJ,Kilimanjaro International Airport,-3.42941,37.074501
3255,HTLM,Lake Manyara Airport,-3.37631,35.818298
3256,HTMT,Mtwara Airport,-10.336204,40.181997
3257,HTMW,Mwanza Airport,-2.444489956,32.93270111
3258,HTPE,Pemba Airport,-5.25726,39.811401
3259,HTTG,Tanga Airport,-5.09236,39.071201
3260,HTZA,Abeid Amani Karume International Airport,-6.22202,39.224899
32234,HUAR,Arua Airport,3.049152,30.911714
3263,HUEN,Entebbe International Airport,0.042386,32.443501
3264,HUGU,Gulu Airport,2.805560112,32.27180099
3265,HUSO,Soroti Airport,1.727689981,33.62279892
18945,K61B,Boulder City Municipal Airport,35.947161,-114.858799
18966,K67L,Mesquite Airport,36.833105,-114.055928
19033,K76F,Van Zandt County Regional Airport,32.681499,-95.9841
19042,K79J,South Alabama Regional At Bill Benton Field Airport,31.3088,-86.393799
3356,KABE,Lehigh Valley International Airport,40.651773,-75.442797
3357,KABI,Abilene Regional Airport,32.41130066,-99.68190002
16091,KABQ,Albuquerque International Sunport,35.039976,-106.608925
3358,KABR,Aberdeen Regional Airport,45.44910049,-98.42179871
3359,KABY,Southwest Georgia Regional Airport,31.532946,-84.196215
3360,KACK,Nantucket Memorial Airport,41.25310135,-70.06020355
3361,KACT,Waco Regional Airport,31.61129951,-97.23049927
3362,KACV,California Redwood Coast-Humboldt County Airport,40.978101,-124.109
3363,KACY,Atlantic City International Airport,39.45759964,-74.57720184
19235,KADH,Ada Regional Airport,34.805214,-96.671988
3364,KADW,Joint Base Andrews,38.810799,-76.866997
3365,KAEX,Alexandria International Airport,31.3274,-92.549797
3366,KAFW,Perot Field/Fort Worth Alliance Airport,32.99044,-97.31947
3367,KAGC,Allegheny County Airport,40.354401,-79.930199
3368,KAGS,Augusta Regional At Bush Field,33.3699,-81.9645
3369,KAHN,Athens Ben Epps Airport,33.948842,-83.325634
19257,KAIA,Alliance Municipal Airport,42.052543,-102.803965
3370,KAKR,Akron Fulton International Airport,41.037355,-81.46784
3371,KALB,Albany International Airport,42.74829865,-73.80169678
3372,KALI,Alice International Airport,27.7409,-98.026901
3373,KALM,Alamogordo White Sands Regional Airport,32.837818,-105.993149
3374,KALN,St Louis Regional Airport,38.89030075,-90.04599762
3375,KALO,Waterloo Regional Airport,42.55709839,-92.40029907
19275,KALS,San Luis Valley Regional Airport/Bergman Field,37.434898,-105.866997
3376,KALW,Walla Walla Regional Airport,46.09489822,-118.288002
3377,KAMA,Rick Husband Amarillo International Airport,35.219398,-101.706001
3378,KANB,Anniston Regional Airport,33.5882,-85.8581
3379,KAND,Anderson Regional Airport,34.49459839,-82.70939636
3380,KAOO,Altoona Blair County Airport,40.296398,-78.32
19291,KAPA,Centennial Airport,39.57009888,-104.848999
19293,KAPF,Naples Municipal Airport,26.15259933,-81.77529907
3381,KAPG,Phillips Army Air Field,39.466202,-76.1688
3382,KAPN,Alpena County Regional Airport,45.0780983,-83.56030273
19301,KARA,Acadiana Regional Airport,30.0378,-91.883904
3383,KART,Watertown International Airport,43.991901,-76.021698
19308,KASE,Aspen-Pitkin County Airport (Sardy Field),39.223202,-106.869003
19314,KAST,Astoria Regional Airport,46.15800095,-123.8789978
3384,KATL,Hartsfield Jackson Atlanta International Airport,33.6367,-84.428101
19320,KATW,Appleton International Airport,44.258099,-88.519096
3385,KATY,Watertown Regional Airport,44.91400146,-97.15470123
19321,KAUG,Augusta State Airport,44.3205986,-69.79730225
3386,KAUS,Austin Bergstrom International Airport,30.197535,-97.662015
19326,KAUW,Wausau Downtown Airport,44.92620087,-89.62660217
3387,KAVL,Asheville Regional Airport,35.436199,-82.541801
3388,KAVP,Wilkes Barre Scranton International Airport,41.33850098,-75.7233963
19334,KAWO,Arlington Municipal Airport,48.161448,-122.158442
3389,KAXN,Chandler Field,45.866299,-95.394699
3390,KAZO,Kalamazoo Battle Creek International Airport,42.23490143,-85.55210114
3391,KBAB,Beale Air Force Base,39.136101,-121.436996
3392,KBAD,Barksdale Air Force Base,32.501801,-93.662697
3393,KBAF,Westfield-Barnes Regional Airport,42.157799,-72.715599
3394,KBAK,Columbus Municipal Airport,39.262386,-85.895576
19351,KBAZ,New Braunfels Municipal Airport,29.7045,-98.042198
19353,KBBD,Curtis Field,31.178931,-99.324732
45961,KBBG,Branson Airport,36.532082,-93.200544
19357,KBCE,Bryce Canyon Airport,37.70640183,-112.1449966
19359,KBCT,Boca Raton Airport,26.3785,-80.107697
3395,KBDE,Baudette International Airport,48.72840118,-94.61219788
3396,KBDL,Bradley International Airport,41.93851,-72.688066
3397,KBDR,Igor I Sikorsky Memorial Airport,41.163502,-73.126198
3398,KBED,Laurence G Hanscom Field,42.470001,-71.289001
3399,KBFD,Bradford Regional Airport,41.80310059,-78.64009857
3400,KBFF,Western Neb. Rgnl/William B. Heilig Airport,41.87400055,-103.5960007
3401,KBFI,Boeing Field King County International Airport,47.529999,-122.302002
3402,KBFL,Meadows Field,35.433601,-119.056999
3403,KBFM,Mobile Downtown Airport,30.62680054,-88.06809998
3404,KBGM,Greater Binghamton/Edwin A Link field,42.20869827,-75.97979736
3405,KBGR,Bangor International Airport,44.8074,-68.828102
19373,KBHB,Hancock County-Bar Harbor Airport,44.45000076,-68.3615036
3406,KBHM,Birmingham-Shuttlesworth International Airport,33.562901,-86.753502
3407,KBIF,Biggs Army Air Field (Fort Bliss),31.84950066,-106.3799973
19377,KBIH,Eastern Sierra Regional Airport,37.3731,-118.363998
3408,KBIL,Billings Logan International Airport,45.807701,-108.542999
3409,KBIS,Bismarck Municipal Airport,46.77270126,-100.7460022
3410,KBIX,Keesler Air Force Base,30.41040039,-88.92440033
3411,KBJC,Rocky Mountain Metropolitan Airport,39.908798,-105.116997
19380,KBJI,Bemidji Regional Airport,47.50939941,-94.93370056
3412,KBKE,Baker City Municipal Airport,44.83729935,-117.8089981
3413,KBKF,Buckley Space Force Base,39.701698,-104.751999
3414,KBKL,Burke Lakefront Airport,41.51750183,-81.6832962
3415,KBKW,Raleigh County Memorial Airport,37.7873,-81.124199
19387,KBLF,Mercer County Airport,37.295799,-81.207703
19388,KBLH,Blythe Airport,33.61920166,-114.7170029
3416,KBLI,Bellingham International Airport,48.7928009,-122.538002
3417,KBLV,Scott AFB/Midamerica Airport,38.5452,-89.835197
3418,KBMG,Monroe County Airport,39.14599991,-86.61669922
3419,KBMI,Central Illinois Regional Airport at Bloomington-Normal,40.4771,-88.915901
3420,KBNA,Nashville International Airport,36.1245,-86.6782
19397,KBNO,Burns Municipal Airport,43.590463,-118.955154
3421,KBOI,Boise Air Terminal/Gowen Field,43.5644,-116.223
3422,KBOS,Logan International Airport,42.36197,-71.0079
19401,KBPI,Miley Memorial Field,42.58509827,-110.1110001
19402,KBPK,Ozark Regional Airport,36.3689003,-92.47049713
3423,KBPT,Jack Brooks Regional Airport,29.9508,-94.020699
3424,KBQK,Brunswick Golden Isles Airport,31.258801,-81.466499
19406,KBRD,Brainerd Lakes Regional Airport,46.402861,-94.129727
3425,KBRL,Southeast Iowa Regional Airport,40.78319931,-91.12550354
3426,KBRO,Brownsville South Padre Island International Airport,25.90679932,-97.42590332
3427,KBTL,Battle Creek Executive Airport at Kellogg Field,42.307301,-85.251503
3428,KBTM,Bert Mooney Airport,45.95479965,-112.4970016
3429,KBTR,Baton Rouge Metropolitan Airport,30.533199,-91.149597
3430,KBTV,Burlington International Airport,44.471901,-73.153297
3431,KBUF,Buffalo Niagara International Airport,42.940498,-78.732201
3432,KBUR,Hollywood Burbank Airport,34.197703,-118.356378
19417,KBVI,Beaver County Airport,40.772499,-80.391403
3433,KBVY,Beverly Regional Airport,42.584202,-70.916496
3434,KBWG,Bowling Green Warren County Regional Airport,36.96450043,-86.41970062
3435,KBWI,Baltimore/Washington International Thurgood Marshall Airport,39.1754,-76.668297
3729,KBXM,Brunswick Executive Airport,43.89220047,-69.93859863
3436,KBYH,Arkansas International Airport,35.96429825,-89.94400024
19429,KBYI,Burley Municipal Airport,42.54259872,-113.7720032
19430,KBYS,Bicycle Lake Army Air Field,35.2804985,-116.6299973
3437,KBZN,Bozeman Yellowstone International Airport,45.7775,-111.153
3438,KCAE,Columbia Metropolitan Airport,33.938801,-81.119499
3439,KCAK,Akron Canton Regional Airport,40.91609955,-81.44219971
3440,KCAR,Caribou Municipal Airport,46.871498,-68.017899
3441,KCBM,Columbus Air Force Base,33.643799,-88.443802
19469,KCCR,Buchanan Field,37.9897,-122.056999
19470,KCCY,Northeast Iowa Regional Airport,43.07260132,-92.6108017
3442,KCDC,Cedar City Regional Airport,37.70100021,-113.098999
19474,KCDR,Chadron Municipal Airport,42.837601,-103.095001
19475,KCDS,Childress Municipal Airport,34.43379974,-100.288002
3443,KCEC,Jack Mc Namara Field Airport,41.778929,-124.236403
3444,KCEF,Westover Metropolitan Airport / Westover Air Reserve Base,42.194,-72.534798
3445,KCEW,Bob Sikes Airport,30.77879906,-86.52210236
19482,KCEZ,Cortez Municipal Airport,37.303001,-108.627998
3446,KCGF,Cuyahoga County Airport,41.56510162,-81.48639679
3447,KCGI,Cape Girardeau Regional Airport,37.2253,-89.570801
3448,KCHA,Chattanooga Metropolitan Airport (Lovell Field),35.035301,-85.203796
3449,KCHO,Charlottesville Albemarle Airport,38.1385994,-78.45290375
3450,KCHS,Charleston International Airport,32.898602,-80.040497
3451,KCID,The Eastern Iowa Airport,41.884701,-91.7108
3452,KCIU,Chippewa County International Airport,46.247707,-84.471379
3453,KCKB,North Central West Virginia Airport,39.2966,-80.228104
3454,KCLE,Cleveland Hopkins International Airport,41.411701,-81.8498
3455,KCLL,Easterwood Field,30.5886,-96.3638
3456,KCLM,William R Fairchild International Airport,48.120201,-123.5
3457,KCLT,Charlotte Douglas International Airport,35.2140007,-80.94309998
19517,KCMA,Camarillo International Airport,34.213699,-119.094002
3458,KCMH,John Glenn Columbus International Airport,39.998001,-82.891899
3459,KCMI,University of Illinois Willard Airport,40.039819,-88.276249
3460,KCMX,Houghton County Memorial Airport,47.16839981,-88.4890976
3461,KCNM,Cavern City Air Terminal,32.33750153,-104.2630005
19527,KCNU,Chanute Martin Johnson Airport,37.668173,-95.486727
19529,KCNY,Canyonlands Regional Airport,38.755001,-109.754997
19530,KCOD,Yellowstone Regional Airport,44.520199,-109.024002
19531,KCOE,Coeur D'Alene Airport - Pappy Boyington Field,47.7743,-116.82
3462,KCOF,Patrick Space Force Base,28.2349,-80.6101
19534,KCON,Concord Municipal Airport,43.20270157,-71.50229645
3463,KCOS,City of Colorado Springs Municipal Airport,38.805801,-104.700996
3464,KCOU,Columbia Regional Airport,38.8181,-92.219597
3465,KCPR,Casper-Natrona County International Airport,42.908001,-106.463997
19549,KCRE,Grand Strand Airport,33.81169891,-78.72389984
19550,KCRG,Jacksonville Executive at Craig Airport,30.3362999,-81.51439667
3466,KCRP,Corpus Christi International Airport,27.770399,-97.501198
19552,KCRQ,McClellan-Palomar Airport,33.1283,-117.279999
3467,KCRW,Yeager Airport,38.3731,-81.593201
3468,KCSG,Columbus Metropolitan Airport,32.5163002,-84.93890381
3469,KCSV,Crossville Memorial Airport Whitson Field,35.95131,-85.08499
3470,KCTB,Cut Bank International Airport,48.608657,-112.378183
19564,KCUB,Jim Hamilton L.B. Owens Airport,33.97050095,-80.99520111
3471,KCVG,Cincinnati Northern Kentucky International Airport,39.048801,-84.667801
19569,KCVN,Clovis Municipal Airport,34.426594,-103.078794
3472,KCVO,Corvallis Municipal Airport,44.49720001,-123.2900009
3473,KCVS,Cannon Air Force Base,34.382801,-103.321999
19571,KCWA,Central Wisconsin Airport,44.777448,-89.670238
3475,KCXO,Conroe-North Houston Regional Airport,30.351801,-95.414497
3476,KCYS,Cheyenne Regional Jerry Olson Field,41.155701,-104.811997
3477,KDAA,Davison Army Air Field,38.71500015,-77.18099976
3478,KDAB,Daytona Beach International Airport,29.179899,-81.058098
19615,KDAG,Barstow Daggett Airport,34.85369873,-116.7870026
3479,KDAL,Dallas Love Field,32.847099,-96.851799
3480,KDAN,Danville Regional Airport,36.572899,-79.336098
3481,KDAY,James M Cox Dayton International Airport,39.902401,-84.219398
3482,KDBQ,Dubuque Regional Airport,42.402,-90.709503
3483,KDCA,Ronald Reagan Washington National Airport,38.8521,-77.037697
3484,KDDC,Dodge City Regional Airport,37.76340103,-99.96559906
3485,KDEC,Decatur Airport,39.83459854,-88.86569977
3486,KDEN,Denver International Airport,39.86169815,-104.6729965
3487,KDET,Coleman A. Young Municipal Airport,42.40919876,-83.00990295
3488,KDFW,Dallas Fort Worth International Airport,32.896801,-97.038002
3489,KDHN,Dothan Regional Airport,31.32130051,-85.44960022
19628,KDHT,Dalhart Municipal Airport,36.02259827,-102.5469971
19630,KDIK,Dickinson Theodore Roosevelt Regional Airport,46.797533,-102.801905
3490,KDLF,Laughlin Air Force Base,29.359501,-100.778002
3491,KDLH,Duluth International Airport,46.842098,-92.193604
19640,KDLS,Columbia Gorge Regional Airport,45.620979,-121.170777
3492,KDMA,Davis Monthan Air Force Base,32.16650009,-110.8830032
3493,KDMN,Deming Municipal Airport,32.26229858,-107.7210007
19644,KDNL,Daniel Field,33.46649933,-82.03939819
3494,KDOV,Dover Air Force Base,39.129501,-75.466003
19648,KDPA,Dupage Airport,41.90779877,-88.24859619
19652,KDRA,Desert Rock Airport,36.6194,-116.032997
3495,KDRI,Beauregard Regional Airport,30.831699,-93.339897
19654,KDRO,Durango La Plata County Airport,37.151501,-107.753998
19655,KDRT,Del Rio International Airport,29.37420082,-100.927002
3496,KDSM,Des Moines International Airport,41.534,-93.663101
19661,KDTS,Destin Executive Airport,30.400101,-86.471497
3497,KDTW,Detroit Metropolitan Wayne County Airport,42.21377,-83.353786
19662,KDUA,Durant Regional Airport - Eaker Field,33.939675,-96.395072
19664,KDUG,Bisbee Douglas International Airport,31.46899986,-109.6039963
3498,KDUJ,DuBois Regional Airport,41.17829895,-78.8986969
19668,KDVL,Devils Lake Regional Airport,48.115454,-98.908796
19676,KDXR,Danbury Municipal Airport,41.371656,-73.482227
3499,KDYS,Dyess Air Force Base,32.420799,-99.854599
19716,KEAR,Kearney Regional Airport,40.727001,-99.006798
19717,KEAT,Pangborn Memorial Airport,47.398899,-120.207001
3501,KEAU,Chippewa Valley Regional Airport,44.86579895,-91.48429871
3502,KECG,Elizabeth City Regional Airport & Coast Guard Air Station,36.260601,-76.174599
46530,KECP,Northwest Florida Beaches International Airport,30.357106,-85.795414
3503,KEDW,Edwards Air Force Base,34.905399,-117.884003
19727,KEED,Needles Airport,34.7663002,-114.6230011
3504,KEEN,Dillant Hopkins Airport,42.898399,-72.270798
19729,KEET,Shelby County Airport,33.17699814,-86.78279877
19731,KEFD,Ellington Airport,29.6072998,-95.15879822
3505,KEGE,Eagle County Regional Airport,39.64260101,-106.9179993
19735,KEGI,Duke Field,30.65040016,-86.52290344
3506,KEKA,Murray Field,40.803398,-124.112999
3507,KEKN,Elkins-Randolph County Regional Airport,38.889759,-79.857651
3508,KEKO,Elko Regional Airport,40.82490158,-115.7919998
3509,KELD,South Arkansas Regional Airport at Goodwin Field,33.221001,-92.813301
3510,KELM,Elmira Corning Regional Airport,42.15990067,-76.89160156
3511,KELO,Ely Municipal Airport,47.82450104,-91.83070374
3512,KELP,El Paso International Airport,31.807199,-106.377998
19753,KELY,Ely Airport Yelland Field,39.29970169,-114.8420029
3513,KEND,Vance Air Force Base,36.339199,-97.916496
19760,KENV,Wendover Airport,40.71870041,-114.0309982
3514,KENW,Kenosha Regional Airport,42.59569931,-87.92780304
3515,KERI,Erie International Tom Ridge Field,42.083127,-80.173867
19770,KESC,Delta County Airport,45.723199,-87.088623
3516,KESF,Esler Army Airfield / Esler Regional Airport,31.394266,-92.294082
3517,KEUG,Mahlon Sweet Field,44.12459946,-123.211998
3518,KEVV,Evansville Regional Airport,38.03699875,-87.53240204
19782,KEVW,Evanston-Uinta County Airport-Burns Field,41.27479935,-111.0350037
3519,KEWB,New Bedford Regional Airport,41.67610168,-70.95690155
3520,KEWN,Coastal Carolina Regional Airport,35.07300186,-77.04290009
3521,KEWR,Newark Liberty International Airport,40.692501,-74.168701
3522,KEYW,Key West International Airport,24.556101,-81.759598
19843,KFAF,Felker Army Air Field,37.1325,-76.608803
3523,KFAR,Hector International Airport,46.92070007,-96.81580353
3524,KFAT,Fresno Yosemite International Airport,36.776199,-119.718002
3525,KFAY,Fayetteville Regional Airport - Grannis Field,34.991199,-78.880302
3526,KFBG,Simmons Army Air Field,35.13180161,-78.93669891
19851,KFCS,Butts AAF (Fort Carson) Air Field,38.67839813,-104.7570038
19857,KFDY,Findlay Airport,41.01350021,-83.66870117
3528,KFFO,Wright-Patterson Air Force Base,39.826099,-84.048302
19868,KFHR,Friday Harbor Airport,48.523654,-123.024645
3529,KFHU,Sierra Vista Municipal Airport / Libby Army Air Field,31.587383,-110.348225
19872,KFKL,Venango Regional Airport,41.37789917,-79.86039734
3530,KFLG,Flagstaff Pulliam International Airport,35.1385,-111.670998
3531,KFLL,Fort Lauderdale Hollywood International Airport,26.072599,-80.152702
3532,KFLO,Florence Regional Airport,34.1853981,-79.72389984
3534,KFME,Tipton Airport,39.08539963,-76.75939941
19881,KFMN,Four Corners Regional Airport,36.741199,-108.230003
19882,KFMY,Page Field,26.58659935,-81.86329651
19885,KFNL,Northern Colorado Regional Airport,40.44969,-105.011272
3535,KFNT,Bishop International Airport,42.9654007,-83.74359894
3536,KFOD,Fort Dodge Regional Airport,42.552624,-94.191237
3537,KFOE,Topeka Regional Airport,38.950901,-95.663597
3538,KFPR,St Lucie County International Airport,27.49510002,-80.36830139
3539,KFRG,Republic Airport,40.72880173,-73.41339874
3540,KFRI,Marshall Army Air Field,39.053021,-96.764202
3541,KFSD,Sioux Falls Regional Airport / Joe Foss Field,43.585463,-96.741152
3542,KFSI,Henry Post Army Air Field,34.649799,-98.402199
3543,KFSM,Fort Smith Regional Airport,35.336601,-94.367401
19900,KFST,Fort Stockton Pecos County Airport,30.91570091,-102.9160004
3544,KFTK,Godman Army Air Field,37.90710068,-85.9720993
3545,KFTW,Fort Worth Meacham International Airport,32.819801,-97.362396
3546,KFTY,Fulton County Airport Brown Field,33.77909851,-84.52140045
3547,KFWA,Fort Wayne International Airport,40.9785,-85.195099
19912,KFXE,Fort Lauderdale Executive Airport,26.19729996,-80.17070007
3548,KFYV,Drake Field,36.00510025,-94.17009735
19929,KGCC,Northeast Wyoming Regional Airport,44.3489,-105.539001
3550,KGCK,Garden City Regional Airport,37.92750168,-100.723999
3551,KGCN,Grand Canyon National Park Airport,35.9524,-112.147003
19936,KGDV,Dawson Community Airport,47.137658,-104.80691
3552,KGEG,Spokane International Airport,47.6199,-117.533997
3553,KGFK,Grand Forks International Airport,47.949299,-97.176102
3554,KGFL,Floyd Bennett Memorial Airport,43.34120178,-73.61029816
3555,KGGG,East Texas Regional Airport,32.38399887,-94.71150208
3556,KGGW,Glasgow Valley County Airport Wokal Field,48.212502,-106.614998
3557,KGJT,Grand Junction Regional Airport,39.126663,-108.529387
19956,KGLD,Goodland Municipal Airport,39.370701,-101.699753
19958,KGLH,Mid Delta Regional Airport,33.482899,-90.985603
3558,KGLS,Scholes International At Galveston Airport,29.265301,-94.860397
19963,KGMU,Greenville Downtown Airport,34.847903,-82.350217
3559,KGNV,Gainesville Regional Airport,29.69009972,-82.27179718
3560,KGON,Groton New London Airport,41.330101,-72.045097
3527,KGPI,Glacier Park International Airport,48.3105011,-114.2559967
3561,KGPT,Gulfport Biloxi International Airport,30.407301,-89.070099
3562,KGRB,Austin Straubel International Airport,44.483459,-88.130805
3563,KGRF,Gray Army Air Field,47.07920074,-122.5810013
3564,KGRI,Central Nebraska Regional Airport,40.96749878,-98.30960083
3565,KGRK,Killeen Regional Airport / Robert Gray Army Airfield,31.0672,-97.828903
3566,KGRR,Gerald R. Ford International Airport,42.88079834,-85.52279663
3567,KGSB,Seymour Johnson Air Force Base,35.339401,-77.960602
3568,KGSO,Piedmont Triad International Airport,36.097801,-79.937302
3569,KGSP,Greenville Spartanburg International Airport,34.895699,-82.218903
3570,KGTB,Wheeler Sack Army Air Field,44.05559921,-75.71949768
3571,KGTF,Great Falls International Airport,47.48199844,-111.3710022
19982,KGTR,Golden Triangle Regional Airport,33.450298,-88.5914
19984,KGUC,Gunnison Crested Butte Regional Airport,38.534672,-106.934566
3572,KGUP,Gallup Municipal Airport,35.511653,-108.788166
3573,KGUS,Grissom Air Reserve Base,40.648102,-86.1521
19985,KGUY,Guymon Municipal Airport,36.68510056,-101.5080032
3574,KGWO,Greenwood–Leflore Airport,33.495025,-90.088204
19997,KGYI,North Texas Regional Airport Perrin Field,33.7141,-96.673698
3575,KGYY,Gary Chicago International Airport,41.61629868,-87.41280365
20027,KHBG,Hattiesburg Bobby L Chain Municipal Airport,31.26479912,-89.25279999
20029,KHBR,Hobart Regional Airport,34.991317,-99.051313
20038,KHDN,Yampa Valley Airport,40.481201,-107.218002
20041,KHEF,Manassas Regional Airport/Harry P. Davis Field,38.721401,-77.515404
3576,KHFD,Hartford Brainard Airport,41.73669815,-72.6493988
3577,KHGR,Hagerstown Regional Richard A Henson Field,39.708771,-77.728014
3578,KHHR,Jack Northrop Field Hawthorne Municipal Airport,33.922798,-118.334999
3579,KHIB,Range Regional Airport,47.384831,-92.836905
3580,KHIF,Hill Air Force Base,41.12403,-111.973086
20053,KHII,Lake Havasu City International Airport,34.571098,-114.358002
20054,KHIO,Portland Hillsboro Airport,45.540401,-122.949997
3581,KHKY,Hickory Regional Airport,35.74110031,-81.38950348
20061,KHLG,Wheeling Ohio County Airport,40.17499924,-80.64630127
3582,KHLN,Helena Regional Airport,46.6068,-111.983002
3584,KHMN,Holloman Air Force Base,32.852501,-106.107002
20071,KHOB,Lea County Regional Airport,32.6875,-103.217003
3585,KHON,Huron Regional Airport,44.385201,-98.2285
3586,KHOP,Campbell Army Airfield (Fort Campbell),36.674154,-87.48974
3587,KHOT,Memorial Field Airport,34.4788,-93.096262
3588,KHOU,William P Hobby Airport,29.645399,-95.2789
3589,KHPN,Westchester County Airport,41.06700134,-73.70760345
3590,KHQM,Bowerman Airport,46.97119904,-123.9369965
3591,KHRL,Valley International Airport,26.22850037,-97.65440369
3592,KHRO,Boone County Airport,36.26150131,-93.15470123
20081,KHRT,Hurlburt Field,30.427799,-86.689301
3593,KHST,Homestead ARB Airport,25.48859978,-80.38359833
3594,KHSV,Huntsville International Carl T Jones Field,34.637199,-86.775101
3595,KHTS,Tri-State Airport / Milton J. Ferguson Field,38.366699,-82.557999
3596,KHUA,Redstone Army Air Field,34.67869949,-86.68479919
3597,KHUF,"Terre Haute Regional Airport, Hulman Field",39.4515,-87.307602
20095,KHUL,Houlton International Airport,46.12310028,-67.792099
3598,KHUT,Hutchinson Municipal Airport,38.06549835,-97.86060333
3599,KHVN,Tweed New Haven Airport,41.26369858,-72.88680267
20099,KHVR,Havre City County Airport,48.541387,-109.762859
20105,KHXD,Hilton Head Airport,32.2244,-80.697502
3600,KHYA,Cape Cod Gateway Airport,41.6693,-70.280403
20107,KHYI,San Marcos Regional Airport,29.8927,-97.862999
20108,KHYR,Sawyer County Airport,46.02519989,-91.44429779
20109,KHYS,Hays Regional Airport,38.844521,-99.273148
20117,KHZY,Northeast Ohio Regional Airport,41.778,-80.695503
20129,KI39,Central Kentucky Regional Airport,37.630798,-84.332298
3601,KIAB,McConnell Air Force Base,37.621899,-97.268204
3602,KIAD,Washington Dulles International Airport,38.9445,-77.455803
3603,KIAG,Niagara Falls International Airport,43.1073,-78.946198
3604,KIAH,George Bush Intercontinental Houston Airport,29.9843998,-95.34140015
3605,KICT,Wichita Eisenhower National Airport,37.649899,-97.433098
3606,KIDA,Idaho Falls Regional Airport,43.514599,-112.070999
20160,KIFP,Laughlin Bullhead International Airport,35.157398,-114.559998
20161,KIGM,Kingman Airport,35.259499,-113.938004
3607,KIKK,Greater Kankakee Airport,41.07139969,-87.84629822
3608,KILG,Wilmington Airport,39.678699,-75.606499
3609,KILM,Wilmington International Airport,34.27059937,-77.90260315
20173,KILN,Wilmington Airpark,39.42789841,-83.792099
20177,KIMT,Ford Airport,45.81911,-88.114557
3610,KIND,Indianapolis International Airport,39.7173,-86.294403
3611,KINK,Winkler County Airport,31.77960014,-103.2009964
3612,KINL,Falls International Airport,48.56620026,-93.40309906
3613,KINT,Smith Reynolds Airport,36.13370132,-80.22200012
20180,KINW,Winslow Lindbergh Regional Airport,35.02190018,-110.7229996
20184,KIPL,Imperial County Airport,32.83539,-115.574026
3614,KIPT,Williamsport Regional Airport,41.242126,-76.92245
3615,KIRK,Kirksville Regional Airport,40.09349823,-92.54489899
20187,KISM,Kissimmee Gateway Airport,28.28980064,-81.43710327
20189,KISO,Kinston Regional Jetport At Stallings Field,35.33140183,-77.6088028
3616,KISP,Long Island Mac Arthur Airport,40.79520035,-73.10019684
20193,KITH,Ithaca Tompkins Regional Airport,42.49100113,-76.45839691
3617,KIWA,Mesa Gateway Airport,33.3078,-111.654999
3618,KJAC,Jackson Hole Airport,43.6072998,-110.737999
3619,KJAN,Jackson-Medgar Wiley Evers International Airport,32.311199,-90.075897
3620,KJAX,Jacksonville International Airport,30.492469,-81.687813
3621,KJBR,Jonesboro Municipal Airport,35.83169937,-90.64640045
20205,KJCT,Kimble County Airport,30.51129913,-99.7634964
3622,KJFK,John F Kennedy International Airport,40.639447,-73.779317
20213,KJHW,Chautauqua County-Jamestown Airport,42.15425,-79.254008
20216,KJKL,Julian Carroll Airport,37.59389877,-83.31729889
3623,KJLN,Joplin Regional Airport,37.151798,-94.498299
3624,KJMS,Jamestown Regional Airport,46.92969894,-98.67819977
20218,KJNX,Johnston Regional Airport,35.540901,-78.390297
20220,KJQF,Concord-Padgett Regional Airport,35.387798,-80.709099
3625,KJST,John Murtha Johnstown Cambria County Airport,40.31610107,-78.83390045
20227,KJWY,Mid-Way Regional Airport,32.4587,-96.912399
3626,KJXN,Jackson County Airport/Reynolds Field,42.260509,-84.463019
20277,KKLS,Southwest Washington Regional Airport,46.11800003,-122.8980026
20300,KL45,Bakersfield International Airport,35.324799,-118.996002
20317,KLAA,Southeast Colorado Regional Airport,38.066407,-102.691373
3627,KLAF,Purdue University Airport,40.412875,-86.939363
3628,KLAL,Lakeland Linder International Airport,27.987656,-82.018776
3629,KLAN,Capital City Airport,42.77870178,-84.58740234
3630,KLAR,Laramie Regional Airport,41.31209946,-105.6750031
3631,KLAS,Harry Reid International Airport,36.083361,-115.151817
20319,KLAW,Lawton Fort Sill Regional Airport,34.567699,-98.416603
3632,KLAX,Los Angeles International Airport,33.942501,-118.407997
3633,KLBB,Lubbock Preston Smith International Airport,33.663601,-101.822998
3634,KLBE,Arnold Palmer Regional Airport,40.275902,-79.4048
3635,KLBF,North Platte Regional Airport Lee Bird Field,41.12620163,-100.6839981
3636,KLBL,Liberal Mid-America Regional Airport,37.0442009,-100.9599991
20322,KLBT,Lumberton Regional Airport,34.610773,-79.05943
20323,KLBX,Texas Gulf Coast Regional Airport,29.108601,-95.462097
3637,KLCH,Lake Charles Regional Airport,30.12610054,-93.22329712
3638,KLCK,Rickenbacker International Airport,39.813801,-82.927803
3639,KLEB,Lebanon Municipal Airport,43.62609863,-72.30419922
20329,KLEE,Leesburg International Airport,28.82309914,-81.80870056
3640,KLEX,Blue Grass Airport,38.036499,-84.605904
3641,KLFI,Langley Air Force Base,37.082901,-76.360497
20332,KLFK,Angelina County Airport,31.23399925,-94.75
3642,KLFT,Lafayette Regional Airport,30.205299,-91.987602
3643,KLGA,LaGuardia Airport,40.777199,-73.872597
3644,KLGB,Long Beach Airport (Daugherty Field),33.816523,-118.149891
20337,KLGU,Logan-Cache Airport,41.79119873,-111.8519974
3645,KLIT,Bill & Hillary Clinton National Airport/Adams Field,34.729582,-92.223728
20354,KLLQ,Monticello Municipal Ellis Field,33.638599,-91.750999
3646,KLMT,Crater Lake-Klamath Regional Airport,42.156101,-121.733002
20359,KLND,Hunt Field,42.815201,-108.730003
3647,KLNK,Lincoln Airport,40.85100174,-96.75920105
3648,KLNS,Lancaster Airport,40.12170029,-76.2960968
20364,KLOL,Derby Field,40.06639862,-118.5650024
3649,KLOU,Bowman Field,38.22800064,-85.66369629
3650,KLOZ,London-Corbin Airport/Magee Field,37.0821991,-84.0848999
3651,KLRD,Laredo International Airport,27.54380035,-99.46160126
3652,KLRF,Little Rock Air Force Base,34.91690063,-92.14969635
3653,KLRU,Las Cruces International Airport,32.289398,-106.921997
3654,KLSE,La Crosse Regional Airport,43.879002,-91.256699
3655,KLSF,Lawson Army Air Field,32.332546,-84.988003
3656,KLSV,Nellis Air Force Base,36.23619843,-115.0339966
3657,KLTS,Altus Air Force Base,34.667099,-99.266701
3658,KLUF,Luke Air Force Base,33.535,-112.383003
3659,KLUK,Cincinnati Municipal Airport Lunken Field,39.102357,-84.418945
20386,KLVM,Mission Field,45.69940186,-110.447998
20388,KLVS,Las Vegas Municipal Airport,35.654202,-105.141998
20390,KLWB,Greenbrier Valley Airport,37.857914,-80.400438
3660,KLWM,Lawrence Municipal Airport,42.71720123,-71.12339783
20393,KLWS,Lewiston Nez Perce County Airport,46.37450027,-117.0149994
3661,KLWT,Lewistown Municipal Airport,47.048429,-109.466143
3662,KLYH,Lynchburg Regional Airport - Preston Glenn Field,37.326698,-79.200401
3663,KMAF,Midland International Air and Space Port,31.942499,-102.202003
20474,KMBG,Mobridge Municipal Airport,45.54650116,-100.4079971
3664,KMBS,MBS International Airport,43.531913,-84.082275
3665,KMCB,McComb-Pike County Airport / John E Lewis Field,31.178499,-90.471901
3666,KMCC,McClellan Airfield,38.667599,-121.401001
20480,KMCE,Merced Regional Macready Field,37.284698,-120.514
3667,KMCF,MacDill Air Force Base,27.8493,-82.521202
3668,KMCI,Kansas City International Airport,39.2976,-94.713898
20481,KMCK,McCook Ben Nelson Regional Airport,40.207787,-100.592794
3669,KMCN,Middle Georgia Regional Airport,32.69279861,-83.64920044
3670,KMCO,Orlando International Airport,28.42939949,-81.30899811
20482,KMCW,Mason City Municipal Airport,43.159801,-93.329716
3671,KMDH,Southern Illinois Airport,37.778099,-89.251999
3672,KMDT,Harrisburg International Airport,40.193501,-76.763397
3673,KMDW,Chicago Midway International Airport,41.785999,-87.752403
3674,KMEI,Key Field / Meridian Regional Airport,32.3326,-88.7519
3675,KMEM,Memphis International Airport,35.0424,-89.9767
3676,KMER,Castle Airport,37.38050079,-120.5680008
3677,KMFD,Mansfield Lahm Regional Airport,40.82139969,-82.51660156
3678,KMFE,McAllen Miller International Airport,26.176141,-98.237965
3679,KMFR,Rogue Valley International Medford Airport,42.37419891,-122.8730011
3680,KMGE,Dobbins Air Reserve Base,33.915401,-84.516296
3681,KMGM,Montgomery Regional (Dannelly Field) Airport,32.300598,-86.393997
3682,KMGW,Morgantown Municipal Airport Walter L. (Bill) Hart Field,39.643305,-79.917598
3683,KMHK,Manhattan Regional Airport,39.14099884,-96.67079926
20506,KMHR,Sacramento Mather Airport,38.554744,-121.297989
3684,KMHT,Manchester-Boston Regional Airport,42.932598,-71.435699
3685,KMIA,Miami International Airport,25.79319954,-80.29060364
3686,KMIB,Minot Air Force Base,48.4156,-101.358002
3687,KMIE,Delaware County Johnson Field,40.242298,-85.395897
3688,KMIV,Millville Municipal Airport,39.367802,-75.072197
3689,KMKC,Charles B. Wheeler Downtown Airport,39.123199,-94.592796
3690,KMKE,General Mitchell International Airport,42.947201,-87.896599
3691,KMKG,Muskegon County Airport,43.169498,-86.238197
3692,KMKL,McKellar-Sipes Regional Airport,35.599899,-88.915604
3693,KMLB,Melbourne Orlando International Airport,28.1028,-80.645302
3694,KMLC,Mc Alester Regional Airport,34.882401,-95.783501
3695,KMLI,Quad City International Airport,41.448502,-90.5075
3696,KMLS,Miles City Airport - Frank Wiley Field,46.427268,-105.885372
3697,KMLU,Monroe Regional Airport,32.510899,-92.037697
20532,KMMT,Mc Entire Joint National Guard Base,33.92079926,-80.80130005
3698,KMMU,Morristown Municipal Airport,40.799062,-74.414949
3699,KMMV,Mc Minnville Municipal Airport,45.19440079,-123.1360016
3700,KMOB,Mobile Regional Airport,30.6912,-88.242798
3701,KMOD,Modesto City Co-Harry Sham Field,37.625801,-120.954002
3702,KMOT,Minot International Airport,48.25939941,-101.2799988
20551,KMPV,Edward F Knapp State Airport,44.20349884,-72.56230164
3703,KMQY,Smyrna Airport,36.00899887,-86.52010345
3704,KMRB,Eastern WV Regional Airport/Shepherd Field,39.40190125,-77.98459625
3705,KMRY,Monterey Peninsula Airport,36.5870018,-121.8430023
3706,KMSL,Northwest Alabama Regional Airport,34.745123,-87.612981
3707,KMSN,Dane County Regional Truax Field,43.1399,-89.337502
3708,KMSO,Missoula International Airport,46.91630173,-114.0910034
3709,KMSP,Minneapolis–Saint Paul International Airport / Wold–Chamberlain Field,44.880081,-93.221741
3710,KMSS,Massena International Airport Richards Field,44.936157,-74.844304
3711,KMSY,Louis Armstrong New Orleans International Airport,29.993401,-90.258003
3712,KMTC,Selfridge Air National Guard Base Airport,42.613463,-82.836919
20564,KMTH,The Florida Keys Marathon Airport,24.726101,-81.051399
20565,KMTJ,Montrose Regional Airport,38.5098,-107.893997
3713,KMTN,Martin State Airport,39.325699,-76.413803
3714,KMUI,Muir Army Air Field (Fort Indiantown Gap) Airport,40.435214,-76.568661
3715,KMUO,Mountain Home Air Force Base,43.043598,-115.872002
20579,KMWA,Veterans Airport of Southern Illinois,37.751208,-89.016568
20581,KMWH,Grant County International Airport,47.20769882,-119.3199997
3716,KMXF,Maxwell Air Force Base,32.3829,-86.365799
20591,KMYL,McCall Municipal Airport,44.888837,-116.101112
3717,KMYR,Myrtle Beach International Airport,33.679699,-78.928299
3718,KMYV,Yuba County Airport,39.09780121,-121.5699997
3719,KNBC,Beaufort MCAS - Merritt Field,32.47740173,-80.72319794
3720,KNBG,New Orleans NAS JRB/Alvin Callender Field,29.82530022,-90.03500366
3721,KNCA,MCAS New River / McCutcheon Field,34.708401,-77.439697
20634,KNDZ,Whiting Field Naval Air Station South Airport,30.704399,-87.023003
3722,KNEL,Lakehurst Maxfield Field Airport,40.03329849,-74.353302
3723,KNEW,Lakefront Airport,30.04240036,-90.02829742
3724,KNFG,Camp Pendleton MCAS (Munn Field) Airport,33.30130005,-117.3550034
3725,KNFL,Fallon Naval Air Station,39.41659927,-118.7009964
20639,KNFW,NAS Fort Worth JRB / Carswell Field,32.769199,-97.441498
3726,KNGP,Naval Air Station Corpus Christi Truax Field,27.6926,-97.2911
3727,KNGU,Norfolk Naval Station (Chambers Field),36.937599,-76.289299
3728,KNHK,Patuxent River Naval Air Station (Trapnell Field),38.285999,-76.411797
20643,KNID,China Lake Naws (Armitage Field) Airport,35.6853981,-117.6920013
3730,KNIP,Jacksonville Naval Air Station (Towers Field),30.2358,-81.680603
3731,KNJK,El Centro NAF Airport (Vraciu Field),32.829201,-115.671996
3732,KNKT,Cherry Point MCAS / Cunningham Field/,34.900902,-76.880699
3733,KNKX,Miramar Marine Corps Air Station - Mitscher Field,32.86840057,-117.1429977
20647,KNLC,Lemoore Naval Air Station (Reeves Field) Airport,36.33300018,-119.9520035
3734,KNMM,Naval Air Station Meridian / McCain Field,32.5531,-88.55406
3735,KNPA,Naval Air Station Pensacola Forrest Sherman Field,30.352699,-87.318604
3736,KNQA,Millington-Memphis Airport,35.356701,-89.8703
3737,KNQI,Kingsville Naval Air Station,27.50720024,-97.80970001
3738,KNQX,Naval Air Station Key West/Boca Chica Field,24.57579994,-81.68890381
20652,KNRB,Naval Station Mayport / Admiral David L McDonald Field,30.3911,-81.424698
20656,KNSE,Whiting Field Naval Air Station - North,30.7241993,-87.02189636
3739,KNTD,Point Mugu Naval Air Station (Naval Base Ventura Co),34.12030029,-119.1210022
3740,KNTU,Oceana Naval Air Station,36.820702,-76.033501
3741,KNUQ,Moffett Federal Airfield,37.4161,-122.049004
20661,KNUW,Whidbey Island Naval Air Station (Ault Field),48.351799,-122.655998
20666,KNXP,Twentynine Palms Strategic Expeditionary Landing Field,34.2962,-116.162003
20669,KNYG,Quantico Marine Corps Airfield / Turner Field,38.501701,-77.305298
3961,KNYL,Yuma International Airport / Marine Corps Air Station Yuma,32.650938,-114.609375
3743,KNZY,North Island Naval Air Station-Halsey Field,32.69919968,-117.2149963
20709,KOAJ,Albert J Ellis Airport,34.829201,-77.612099
3744,KOAK,San Francisco Bay Oakland International Airport,37.720085,-122.221184
3745,KOFF,Offutt Air Force Base,41.119307,-95.90851
20722,KOFK,Karl Stefan Memorial Airport,41.98550034,-97.43509674
20725,KOGB,Orangeburg Municipal Airport,33.45679855,-80.85949707
3746,KOGD,Ogden Hinckley Airport,41.19589996,-112.012001
20727,KOGS,Ogdensburg International Airport,44.6819,-75.4655
3747,KOKC,Will Rogers World Airport,35.393388,-97.598248
20739,KOLF,L M Clayton Airport,48.094501,-105.574997
3749,KOLM,Olympia Regional Airport,46.969399,-122.903
20741,KOLS,Nogales International Airport,31.4177,-110.848
3750,KOLU,Columbus Municipal Airport,41.448145,-97.340174
3751,KOMA,Eppley Airfield,41.3032,-95.894096
20751,KONO,Ontario Municipal Airport,44.0198,-117.013289
20752,KONP,Newport Municipal Airport,44.580399,-124.057999
3752,KONT,Ontario International Airport,34.056,-117.600998
20757,KOPF,Miami-Opa Locka Executive Airport,25.907,-80.278397
3753,KOQU,Quonset State Airport,41.5970993,-71.41210175
3754,KORD,Chicago O'Hare International Airport,41.9786,-87.9048
3755,KORF,Norfolk International Airport,36.895341,-76.201
3756,KORH,Worcester Regional Airport,42.2673,-71.875702
23952,KORS,Orcas Island Airport,48.708199,-122.910004
3757,KOSH,Wittman Regional Airport,43.9844017,-88.55699921
3758,KOSU,The Ohio State University Airport - Don Scott Field,40.0798,-83.072998
3759,KOTH,Southwest Oregon Regional Airport,43.417099,-124.2460022
3760,KOTM,Ottumwa Regional Airport,41.106368,-92.449837
3761,KOWB,Owensboro Daviess County Airport,37.74010086,-87.16680145
20777,KOWD,Norwood Memorial Airport,42.19049835,-71.17289734
20785,KOXR,Oxnard Airport,34.20080185,-119.2070007
